{
    "code": "0",
    "message": "操作成功",
    "errors": null,
    "data": [
    {
        "orgId": "062e4986763c44bdbab5abedca4f9e40",
        "name": "东北",
        "sort": 5,
        "status": 1,
        "parentId": "E95G0755",
        "remark": null,
        "createMan": "sjadmin",
        "createTime": 1438845787000,
        "address": "江苏省苏州市昆山市花桥镇绿地大道231弄杰座大夏9号楼14F",
        "lat": 31.355616,
        "lng": 120.969057,
        "intro": "云瀚股份有限公司",
        "logo": "38110dde65a64816ab3c75ad55fc7b9e.png",
        "province": "320000",
        "city": "320500",
        "district": null,
        "orgType": 1,
        "platformName": "车联网乘用车管理平台"
    },
    {
        "orgId": "0921908b6a3844919b7dfdb242c514c5",
        "name": "昆明部门",
        "sort": 1,
        "status": 1,
        "parentId": "R65W8703",
        "remark": null,
        "createMan": "42bac5261154491a8c1562ed36094b85",
        "createTime": 1440471663000,
        "address": "昆明市",
        "lat": 24.886871,
        "lng": 102.848183,
        "intro": "重庆思建科技有限公司昆明",
        "logo": "17fb9ce9c70147ba981544a7b9721f30.png",
        "province": "530000",
        "city": "530100",
        "district": null,
        "orgType": 1,
        "platformName": "车联网乘用车管理平台"
    },
    {
        "orgId": "0e8673fc65f7471ea868382939ef80c3",
        "name": "城南分部门b部",
        "sort": 2,
        "status": 1,
        "parentId": "33f295e8d1794e8383dc8f4605882e44",
        "remark": null,
        "createMan": "a4520648d225407c9c05b9ab713b7eb2",
        "createTime": 1444965879000,
        "address": "重庆渝中区上清寺渝中大厦",
        "lat": 30.461708,
        "lng": 106.639485,
        "intro": "四川分公司是……………………",
        "logo": "9030ac9c206f4b1f8c79197e05a7630f.png",
        "province": "510000",
        "city": "511600",
        "district": null,
        "orgType": 1,
        "platformName": "广安车联网"
    },
    {
        "orgId": "0ea46bd1948c42eeb2268f7b194b94ce",
        "name": "部门a1",
        "sort": 7,
        "status": 1,
        "parentId": "S98L9288",
        "remark": null,
        "createMan": "42bac5261154491a8c1562ed36094b85",
        "createTime": 1437204099000,
        "address": "重庆渝中区上清寺渝中大厦",
        "lat": 29.567625,
        "lng": 106.553142,
        "intro": "思建科技测试机构",
        "logo": "17fb9ce9c70147ba981544a7b9721f30.png",
        "province": "500000",
        "city": "500100",
        "district": null,
        "orgType": 1,
        "platformName": "车联网乘用车管理平台"
    },
    {
        "orgId": "10a23346720d4dc99e64b222f9502047",
        "name": "项目部",
        "sort": 13,
        "status": 1,
        "parentId": "R23H2376",
        "remark": null,
        "createMan": "aa372a67d81c482c931abc1935868b1f",
        "createTime": 1437204520000,
        "address": "重庆渝中区上清寺渝中大厦",
        "lat": 29.567625,
        "lng": 106.553142,
        "intro": "四川分公司是……………………",
        "logo": "9030ac9c206f4b1f8c79197e05a7630f.png",
        "province": "500000",
        "city": "500100",
        "district": null,
        "orgType": 1,
        "platformName": "车联网乘用车管理平台"
    },
    {
        "orgId": "1453a8004da94f45856a13657cdefe72",
        "name": "（天津）",
        "sort": 15,
        "status": 1,
        "parentId": "S98L9288",
        "remark": null,
        "createMan": "42bac5261154491a8c1562ed36094b85",
        "createTime": 1442977983000,
        "address": "天津市",
        "lat": 39.093484,
        "lng": 117.206848,
        "intro": "天津市",
        "logo": "253fe49aeed549e19110247f237bbbe7.png",
        "province": "120000",
        "city": "120100",
        "district": null,
        "orgType": 1,
        "platformName": "车联网乘用车管理平台"
    },
    {
        "orgId": "1894b9bbd6734e5ba007ff5627923a7d",
        "name": "（杭州）",
        "sort": 12,
        "status": 1,
        "parentId": "S98L9288",
        "remark": null,
        "createMan": "42bac5261154491a8c1562ed36094b85",
        "createTime": 1439525449000,
        "address": "杭州市",
        "lat": 30.276441,
        "lng": 120.158387,
        "intro": "杭州市",
        "logo": "17fb9ce9c70147ba981544a7b9721f30.png",
        "province": "330000",
        "city": "330100",
        "district": null,
        "orgType": 1,
        "platformName": "车联网乘用车管理平台"
    },
    {
        "orgId": "1970aa60416049bf8ff641b9c70a65be",
        "name": "浙江",
        "sort": 24,
        "status": 1,
        "parentId": "E95G0755",
        "remark": null,
        "createMan": "sjadmin",
        "createTime": 1438846111000,
        "address": "江苏省苏州市昆山市花桥镇绿地大道231弄杰座大夏9号楼14F",
        "lat": 31.355616,
        "lng": 120.969057,
        "intro": "云瀚股份有限公司",
        "logo": "38110dde65a64816ab3c75ad55fc7b9e.png",
        "province": "320000",
        "city": "320500",
        "district": null,
        "orgType": 1,
        "platformName": "车联网乘用车管理平台"
    },
    {
        "orgId": "1af4932b7c7946c8bfdeec409e4d16bf",
        "name": "东莞",
        "sort": 6,
        "status": 1,
        "parentId": "E95G0755",
        "remark": null,
        "createMan": "sjadmin",
        "createTime": 1438845813000,
        "address": "江苏省苏州市昆山市花桥镇绿地大道231弄杰座大夏9号楼14F",
        "lat": 31.355616,
        "lng": 120.969057,
        "intro": "云瀚股份有限公司",
        "logo": "38110dde65a64816ab3c75ad55fc7b9e.png",
        "province": "320000",
        "city": "320500",
        "district": null,
        "orgType": 1,
        "platformName": "车联网乘用车管理平台"
    },
    {
        "orgId": "1d7bdafbc4ae4334a91d7a8ad06aa286",
        "name": "部门aaa3",
        "sort": 4,
        "status": 1,
        "parentId": "U21T7672",
        "remark": null,
        "createMan": "42bac5261154491a8c1562ed36094b85",
        "createTime": 1439023070000,
        "address": "渝北区",
        "lat": 29.68358,
        "lng": 106.665177,
        "intro": "渝北区",
        "logo": "dd2c5955942140fd9df2d707cc6a001d.jpg",
        "province": "500000",
        "city": "500100",
        "district": null,
        "orgType": 1,
        "platformName": "车联网乘用车管理平台"
    },
    {
        "orgId": "237ca5c5525246658e46a9cd1d7640ae",
        "name": "泉州部门",
        "sort": 3,
        "status": 1,
        "parentId": "R61N0068",
        "remark": null,
        "createMan": "42bac5261154491a8c1562ed36094b85",
        "createTime": 1439360613000,
        "address": "泉州市",
        "lat": 24.885421,
        "lng": 118.678938,
        "intro": "重庆渝中区上清寺渝中大厦",
        "logo": "17fb9ce9c70147ba981544a7b9721f30.png",
        "province": "350000",
        "city": "350500",
        "district": null,
        "orgType": 1,
        "platformName": "车联网乘用车管理平台"
    },
    {
        "orgId": "26da3c2cb96141569e3c9d2c91f68ea3",
        "name": "榆林",
        "sort": 16,
        "status": 1,
        "parentId": "E95G0755",
        "remark": null,
        "createMan": "sjadmin",
        "createTime": 1451028392000,
        "address": "江苏省苏州市昆山市花桥镇绿地大道231弄杰座大夏9号楼14F",
        "lat": 31.355616,
        "lng": 120.969057,
        "intro": "云瀚股份有限公司",
        "logo": "38110dde65a64816ab3c75ad55fc7b9e.png",
        "province": "320000",
        "city": "320500",
        "district": null,
        "orgType": 1,
        "platformName": "车联网乘用车管理平台"
    },
    {
        "orgId": "27c4ea892c1949e29a1544638a2aed10",
        "name": "重庆",
        "sort": 2,
        "status": 1,
        "parentId": "E95G0755",
        "remark": null,
        "createMan": "sjadmin",
        "createTime": 1438845735000,
        "address": "江苏省苏州市昆山市花桥镇绿地大道231弄杰座大夏9号楼14F",
        "lat": 31.355616,
        "lng": 120.969057,
        "intro": "云瀚股份有限公司",
        "logo": "38110dde65a64816ab3c75ad55fc7b9e.png",
        "province": "320000",
        "city": "320500",
        "district": null,
        "orgType": 1,
        "platformName": "车联网乘用车管理平台"
    },
    {
        "orgId": "27f5feca9a2244ed971609441cff520a",
        "name": "部门aaa2",
        "sort": 3,
        "status": 1,
        "parentId": "U21T7672",
        "remark": null,
        "createMan": "42bac5261154491a8c1562ed36094b85",
        "createTime": 1439023062000,
        "address": "渝北区",
        "lat": 29.711126,
        "lng": 106.658206,
        "intro": "渝北区",
        "logo": "dd2c5955942140fd9df2d707cc6a001d.jpg",
        "province": "500000",
        "city": "500100",
        "district": null,
        "orgType": 1,
        "platformName": "车联网乘用车管理平台"
    },
    {
        "orgId": "2879fbac9ef14ee192f65e8828a19d0c",
        "name": "中山部门",
        "sort": 3,
        "status": 1,
        "parentId": "P48J9629",
        "remark": null,
        "createMan": "42bac5261154491a8c1562ed36094b85",
        "createTime": 1439360356000,
        "address": "中山市",
        "lat": 22.5254,
        "lng": 113.40161,
        "intro": "思建",
        "logo": "17fb9ce9c70147ba981544a7b9721f30.png",
        "province": "440000",
        "city": "442000",
        "district": null,
        "orgType": 1,
        "platformName": "车联网乘用车管理平台"
    },
    {
        "orgId": "28c2b8be6ad14dffb5a44286cb48b571",
        "name": "广西",
        "sort": 9,
        "status": 1,
        "parentId": "E95G0755",
        "remark": null,
        "createMan": "sjadmin",
        "createTime": 1438845866000,
        "address": "江苏省苏州市昆山市花桥镇绿地大道231弄杰座大夏9号楼14F",
        "lat": 31.355616,
        "lng": 120.969057,
        "intro": "云瀚股份有限公司",
        "logo": "38110dde65a64816ab3c75ad55fc7b9e.png",
        "province": "320000",
        "city": "320500",
        "district": null,
        "orgType": 1,
        "platformName": "车联网乘用车管理平台"
    },
    {
        "orgId": "2ec0a612c3cc4befaaeba1926cd2da0f",
        "name": "丽江部门",
        "sort": 2,
        "status": 1,
        "parentId": "R65W8703",
        "remark": null,
        "createMan": "42bac5261154491a8c1562ed36094b85",
        "createTime": 1445497124000,
        "address": "丽江市",
        "lat": 26.864841,
        "lng": 100.241906,
        "intro": "重庆思建科技有限公司云南",
        "logo": "17fb9ce9c70147ba981544a7b9721f30.png",
        "province": "530000",
        "city": "530700",
        "district": null,
        "orgType": 1,
        "platformName": "车联网乘用车管理平台"
    },
    {
        "orgId": "2fe85a0f1d0a47e588f488ed37520d87",
        "name": "南平部门",
        "sort": 4,
        "status": 1,
        "parentId": "R61N0068",
        "remark": null,
        "createMan": "42bac5261154491a8c1562ed36094b85",
        "createTime": 1439361501000,
        "address": "南平市",
        "lat": 26.643141,
        "lng": 118.179844,
        "intro": "重庆渝中区上清寺渝中大厦",
        "logo": "17fb9ce9c70147ba981544a7b9721f30.png",
        "province": "350000",
        "city": "350700",
        "district": null,
        "orgType": 1,
        "platformName": "车联网乘用车管理平台"
    },
    {
        "orgId": "3093e6408905496db690af97c6a2a988",
        "name": "部门福建",
        "sort": 3,
        "status": 1,
        "parentId": "G32C9248",
        "remark": null,
        "createMan": "42bac5261154491a8c1562ed36094b85",
        "createTime": 1437643652000,
        "address": "福建",
        "lat": 24.487794,
        "lng": 118.097352,
        "intro": "福建",
        "logo": "9ab34adb6b294984b39eb760a014513d.jpg",
        "province": "350000",
        "city": "350200",
        "district": null,
        "orgType": 1,
        "platformName": "车联网乘用车管理平台"
    },
    {
        "orgId": "30d8dade83ce4cfc81dc334627306c4c",
        "name": "福建",
        "sort": 25,
        "status": 1,
        "parentId": "E95G0755",
        "remark": null,
        "createMan": "sjadmin",
        "createTime": 1438846127000,
        "address": "江苏省苏州市昆山市花桥镇绿地大道231弄杰座大夏9号楼14F",
        "lat": 31.355616,
        "lng": 120.969057,
        "intro": "云瀚股份有限公司",
        "logo": "38110dde65a64816ab3c75ad55fc7b9e.png",
        "province": "320000",
        "city": "320500",
        "district": null,
        "orgType": 1,
        "platformName": "车联网乘用车管理平台"
    },
    {
        "orgId": "31822c00ebd04c10b57e13979791f20c",
        "name": "威海部门",
        "sort": 4,
        "status": 1,
        "parentId": "F83F2136",
        "remark": null,
        "createMan": "42bac5261154491a8c1562ed36094b85",
        "createTime": 1439361546000,
        "address": "威海市",
        "lat": 37.521154,
        "lng": 122.131982,
        "intro": "威海市",
        "logo": "4d0d26c2f61646f28d8a3ba432ab617c.png",
        "province": "370000",
        "city": "371000",
        "district": null,
        "orgType": 1,
        "platformName": "车联网乘用车管理平台"
    },
    {
        "orgId": "33f295e8d1794e8383dc8f4605882e44",
        "name": "城南分部门",
        "sort": 3,
        "status": 1,
        "parentId": "L57U8557",
        "remark": null,
        "createMan": "a4520648d225407c9c05b9ab713b7eb2",
        "createTime": 1444965784000,
        "address": "重庆渝中区上清寺渝中大厦",
        "lat": 30.461708,
        "lng": 106.639485,
        "intro": "四川分公司是……………………",
        "logo": "9030ac9c206f4b1f8c79197e05a7630f.png",
        "province": "510000",
        "city": "511600",
        "district": null,
        "orgType": 1,
        "platformName": "广安车联网"
    },
    {
        "orgId": "35ac54755d4847d59571baca7a9e1913",
        "name": "部门a2",
        "sort": 8,
        "status": 1,
        "parentId": "S98L9288",
        "remark": null,
        "createMan": "42bac5261154491a8c1562ed36094b85",
        "createTime": 1437204284000,
        "address": "重庆渝中区上清寺渝中大厦",
        "lat": 29.567625,
        "lng": 106.553142,
        "intro": "思建科技测试机构",
        "logo": "edff686b18ad4830b9b33ffcc3f31c5c.jpg",
        "province": "500000",
        "city": "500100",
        "district": null,
        "orgType": 1,
        "platformName": "车联网乘用车管理平台"
    },
    {
        "orgId": "3e8f59bc8a374193aa346bb9006d3f6d",
        "name": "河南",
        "sort": 12,
        "status": 1,
        "parentId": "E95G0755",
        "remark": null,
        "createMan": "sjadmin",
        "createTime": 1438845910000,
        "address": "江苏省苏州市昆山市花桥镇绿地大道231弄杰座大夏9号楼14F",
        "lat": 31.355616,
        "lng": 120.969057,
        "intro": "云瀚股份有限公司",
        "logo": "38110dde65a64816ab3c75ad55fc7b9e.png",
        "province": "320000",
        "city": "320500",
        "district": null,
        "orgType": 1,
        "platformName": "车联网乘用车管理平台"
    },
    {
        "orgId": "4033944c0d3f437a912946f969c443b8",
        "name": "广安子部门",
        "sort": 2,
        "status": 1,
        "parentId": "L57U8557",
        "remark": null,
        "createMan": "aa372a67d81c482c931abc1935868b1f",
        "createTime": 1440123617000,
        "address": "广安",
        "lat": 30.461708,
        "lng": 106.639485,
        "intro": "广安子部门",
        "logo": "9030ac9c206f4b1f8c79197e05a7630f.png",
        "province": "510000",
        "city": "511600",
        "district": null,
        "orgType": 1,
        "platformName": "车联网乘用车管理平台"
    },
    {
        "orgId": "444f8eb1f3664702b69f245fe28be294",
        "name": "测试部",
        "sort": 3,
        "status": 1,
        "parentId": "M63H0907",
        "remark": null,
        "createMan": "aa372a67d81c482c931abc1935868b1f",
        "createTime": 1438660202000,
        "address": "重庆渝中区上清寺渝中大厦",
        "lat": 29.567625,
        "lng": 106.553142,
        "intro": "四川分公司是……………………\r\n测试二\r\n测试三",
        "logo": "6bc489d33d104ef588782feeed823634.jpg",
        "province": "500000",
        "city": "500100",
        "district": null,
        "orgType": 1,
        "platformName": "车联网乘用车管理平台"
    },
    {
        "orgId": "448d576cadc743eb8c6b4c11b1ace516",
        "name": "西安",
        "sort": 21,
        "status": 1,
        "parentId": "E95G0755",
        "remark": null,
        "createMan": "sjadmin",
        "createTime": 1438846069000,
        "address": "江苏省苏州市昆山市花桥镇绿地大道231弄杰座大夏9号楼14F",
        "lat": 31.355616,
        "lng": 120.969057,
        "intro": "云瀚股份有限公司",
        "logo": "38110dde65a64816ab3c75ad55fc7b9e.png",
        "province": "320000",
        "city": "320500",
        "district": null,
        "orgType": 1,
        "platformName": "车联网乘用车管理平台"
    },
    {
        "orgId": "44cabaa1772b4fd39ea98514a3b99f54",
        "name": "部门重庆",
        "sort": 1,
        "status": 1,
        "parentId": "G32C9248",
        "remark": null,
        "createMan": "42bac5261154491a8c1562ed36094b85",
        "createTime": 1437452433000,
        "address": "重庆",
        "lat": 29.563709,
        "lng": 106.585911,
        "intro": "重庆",
        "logo": "9ab34adb6b294984b39eb760a014513d.jpg",
        "province": "500000",
        "city": "500100",
        "district": null,
        "orgType": 1,
        "platformName": "车联网乘用车管理平台"
    },
    {
        "orgId": "452ff110d0a44360a314d324388ce184",
        "name": "新疆",
        "sort": 23,
        "status": 1,
        "parentId": "E95G0755",
        "remark": null,
        "createMan": "sjadmin",
        "createTime": 1438846097000,
        "address": "江苏省苏州市昆山市花桥镇绿地大道231弄杰座大夏9号楼14F",
        "lat": 31.355616,
        "lng": 120.969057,
        "intro": "云瀚股份有限公司",
        "logo": "38110dde65a64816ab3c75ad55fc7b9e.png",
        "province": "320000",
        "city": "320500",
        "district": null,
        "orgType": 1,
        "platformName": "车联网乘用车管理平台"
    },
    {
        "orgId": "457a52bd602948ccbb869a5cbf69e08a",
        "name": "广州部门",
        "sort": 2,
        "status": 1,
        "parentId": "P48J9629",
        "remark": null,
        "createMan": "42bac5261154491a8c1562ed36094b85",
        "createTime": 1439360282000,
        "address": "广州市",
        "lat": 23.13657,
        "lng": 113.276398,
        "intro": "思建",
        "logo": "17fb9ce9c70147ba981544a7b9721f30.png",
        "province": "440000",
        "city": "440100",
        "district": null,
        "orgType": 1,
        "platformName": "车联网乘用车管理平台"
    },
    {
        "orgId": "478746f3a14745009c06f1b2304c8ea4",
        "name": "甘肃",
        "sort": 7,
        "status": 1,
        "parentId": "E95G0755",
        "remark": null,
        "createMan": "sjadmin",
        "createTime": 1438845831000,
        "address": "江苏省苏州市昆山市花桥镇绿地大道231弄杰座大夏9号楼14F",
        "lat": 31.355616,
        "lng": 120.969057,
        "intro": "云瀚股份有限公司",
        "logo": "38110dde65a64816ab3c75ad55fc7b9e.png",
        "province": "320000",
        "city": "320500",
        "district": null,
        "orgType": 1,
        "platformName": "车联网乘用车管理平台"
    },
    {
        "orgId": "4a04b7357c244e48b58af19d33f86f07",
        "name": "万州部门",
        "sort": 1,
        "status": 1,
        "parentId": "M98L0499",
        "remark": null,
        "createMan": "42bac5261154491a8c1562ed36094b85",
        "createTime": 1439360737000,
        "address": "万州区",
        "lat": 30.830716,
        "lng": 108.391505,
        "intro": "重庆渝中区上清寺渝中大厦",
        "logo": "17fb9ce9c70147ba981544a7b9721f30.png",
        "province": "500000",
        "city": "500100",
        "district": null,
        "orgType": 1,
        "platformName": "车联网乘用车管理平台"
    },
    {
        "orgId": "4a7a348b85144dabb6f74c27f70d88ec",
        "name": "子部门a1",
        "sort": 1,
        "status": 1,
        "parentId": "0ea46bd1948c42eeb2268f7b194b94ce",
        "remark": null,
        "createMan": "42bac5261154491a8c1562ed36094b85",
        "createTime": 1439050199000,
        "address": "重庆渝中区上清寺渝中大厦",
        "lat": 29.567625,
        "lng": 106.553142,
        "intro": "思建科技测试机构",
        "logo": "9ab34adb6b294984b39eb760a014513d.jpg",
        "province": "500000",
        "city": "500100",
        "district": null,
        "orgType": 1,
        "platformName": "车联网乘用车管理平台"
    },
    {
        "orgId": "4b2bc11de87b438b9c59dfc56a525809",
        "name": "厦门部门",
        "sort": 1,
        "status": 1,
        "parentId": "R61N0068",
        "remark": null,
        "createMan": "42bac5261154491a8c1562ed36094b85",
        "createTime": 1439360574000,
        "address": "厦门市",
        "lat": 24.483782,
        "lng": 118.097208,
        "intro": "重庆渝中区上清寺渝中大厦",
        "logo": "17fb9ce9c70147ba981544a7b9721f30.png",
        "province": "350000",
        "city": "350200",
        "district": null,
        "orgType": 1,
        "platformName": "车联网乘用车管理平台"
    },
    {
        "orgId": "4b8af5aaca634b1b964c04407238504e",
        "name": "工厂",
        "sort": 8,
        "status": 1,
        "parentId": "E95G0755",
        "remark": null,
        "createMan": "sjadmin",
        "createTime": 1438845848000,
        "address": "江苏省苏州市昆山市花桥镇绿地大道231弄杰座大夏9号楼14F",
        "lat": 31.355616,
        "lng": 120.969057,
        "intro": "云瀚股份有限公司",
        "logo": "38110dde65a64816ab3c75ad55fc7b9e.png",
        "province": "320000",
        "city": "320500",
        "district": null,
        "orgType": 1,
        "platformName": "车联网乘用车管理平台"
    },
    {
        "orgId": "5096d9dc826749e5bf9f4516c003c2ab",
        "name": "青岛部门",
        "sort": 1,
        "status": 1,
        "parentId": "F83F2136",
        "remark": null,
        "createMan": "42bac5261154491a8c1562ed36094b85",
        "createTime": 1439023195000,
        "address": "青岛市",
        "lat": 36.074983,
        "lng": 120.391242,
        "intro": "青岛市",
        "logo": "9ab34adb6b294984b39eb760a014513d.jpg",
        "province": "370000",
        "city": "370200",
        "district": null,
        "orgType": 1,
        "platformName": "车联网乘用车管理平台"
    },
    {
        "orgId": "54f75dd69f0344d9bdfababf4c5a352e",
        "name": "研发部",
        "sort": 5,
        "status": 1,
        "parentId": "L57U8557",
        "remark": null,
        "createMan": "a4520648d225407c9c05b9ab713b7eb2",
        "createTime": 1448937735000,
        "address": "重庆渝中区上清寺渝中大厦",
        "lat": 30.461708,
        "lng": 106.639485,
        "intro": "四川分公司是……………………",
        "logo": "9030ac9c206f4b1f8c79197e05a7630f.png",
        "province": "510000",
        "city": "511600",
        "district": null,
        "orgType": 1,
        "platformName": "广安车联网"
    },
    {
        "orgId": "55714b3859d04786a000c527e944a11c",
        "name": "行政部",
        "sort": 10,
        "status": 1,
        "parentId": "R23H2376",
        "remark": null,
        "createMan": "aa372a67d81c482c931abc1935868b1f",
        "createTime": 1437204380000,
        "address": "重庆渝中区上清寺渝中大厦",
        "lat": 29.567625,
        "lng": 106.553142,
        "intro": "四川分公司是……………………",
        "logo": "9030ac9c206f4b1f8c79197e05a7630f.png",
        "province": "500000",
        "city": "500100",
        "district": null,
        "orgType": 1,
        "platformName": "车联网乘用车管理平台"
    },
    {
        "orgId": "580acc9235524478b8281394b7e62ce1",
        "name": "国土房产部",
        "sort": 1,
        "status": 1,
        "parentId": "M63H0907",
        "remark": null,
        "createMan": "aa372a67d81c482c931abc1935868b1f",
        "createTime": 1438660184000,
        "address": "重庆渝中区上清寺渝中大厦",
        "lat": 29.567625,
        "lng": 106.553142,
        "intro": "四川分公司是……………………\r\n测试二\r\n测试三",
        "logo": "6bc489d33d104ef588782feeed823634.jpg",
        "province": "500000",
        "city": "500100",
        "district": null,
        "orgType": 1,
        "platformName": "车联网乘用车管理平台"
    },
    {
        "orgId": "595639731efa42eea1b882ecf7a97fb8",
        "name": "行政部",
        "sort": 1,
        "status": 1,
        "parentId": "C06M6062",
        "remark": null,
        "createMan": "ffea0d82360646ebbda7efdbdf4988ca",
        "createTime": 1450946703000,
        "address": "重庆渝中区上清寺渝中大厦",
        "lat": 29.567625,
        "lng": 106.553142,
        "intro": "思建科技测试机构",
        "logo": "17fb9ce9c70147ba981544a7b9721f30.png",
        "province": "350000",
        "city": "",
        "district": null,
        "orgType": 1,
        "platformName": "车联网乘用车管理平台"
    },
    {
        "orgId": "616ed93e85bc455ba6f064e8f8bb3e69",
        "name": "市场1部",
        "sort": 1,
        "status": 1,
        "parentId": "caee0abb779f4fa0b8345841701b89c5",
        "remark": null,
        "createMan": "aa372a67d81c482c931abc1935868b1f",
        "createTime": 1438236815000,
        "address": "重庆渝中区上清寺渝中大厦",
        "lat": 29.567625,
        "lng": 106.553142,
        "intro": "四川分公司是……………………",
        "logo": "17fb9ce9c70147ba981544a7b9721f30.png",
        "province": "500000",
        "city": "500100",
        "district": null,
        "orgType": 1,
        "platformName": "车联网乘用车管理平台"
    },
    {
        "orgId": "62f98c82e5114216aea620a92a6c69ae",
        "name": "测试部",
        "sort": 16,
        "status": 1,
        "parentId": "R23H2376",
        "remark": null,
        "createMan": "aa372a67d81c482c931abc1935868b1f",
        "createTime": 1438236866000,
        "address": "重庆渝中区上清寺渝中大厦",
        "lat": 29.567625,
        "lng": 106.553142,
        "intro": "四川分公司是……………………",
        "logo": "17fb9ce9c70147ba981544a7b9721f30.png",
        "province": "500000",
        "city": "500100",
        "district": null,
        "orgType": 1,
        "platformName": "车联网乘用车管理平台"
    },
    {
        "orgId": "6702c89c2aa54f0fa13b0732b392e348",
        "name": "北京",
        "sort": 4,
        "status": 1,
        "parentId": "E95G0755",
        "remark": null,
        "createMan": "sjadmin",
        "createTime": 1438845772000,
        "address": "江苏省苏州市昆山市花桥镇绿地大道231弄杰座大夏9号楼14F",
        "lat": 31.355616,
        "lng": 120.969057,
        "intro": "云瀚股份有限公司",
        "logo": "38110dde65a64816ab3c75ad55fc7b9e.png",
        "province": "320000",
        "city": "320500",
        "district": null,
        "orgType": 1,
        "platformName": "车联网乘用车管理平台"
    },
    {
        "orgId": "678589a37fcc4deaafb3a8ca2e91d134",
        "name": "部门a3",
        "sort": 10,
        "status": 1,
        "parentId": "S98L9288",
        "remark": null,
        "createMan": "42bac5261154491a8c1562ed36094b85",
        "createTime": 1439016404000,
        "address": "重庆渝中区上清寺渝中大厦",
        "lat": 29.549216,
        "lng": 106.537475,
        "intro": "思建",
        "logo": "17fb9ce9c70147ba981544a7b9721f30.png",
        "province": "500000",
        "city": "500100",
        "district": null,
        "orgType": 1,
        "platformName": "车联网乘用车管理平台"
    },
    {
        "orgId": "714614b76340438fa8d0c2d285f973b1",
        "name": "技术支持测试2",
        "sort": 1,
        "status": 1,
        "parentId": "E14V2066",
        "remark": null,
        "createMan": "ffea0d82360646ebbda7efdbdf4988ca",
        "createTime": 1450929208000,
        "address": "重庆渝中区上清寺渝中大厦",
        "lat": 29.567625,
        "lng": 106.553142,
        "intro": "思建科技测试机构",
        "logo": "17fb9ce9c70147ba981544a7b9721f30.png",
        "province": "500000",
        "city": "500100",
        "district": null,
        "orgType": 1,
        "platformName": "车联网乘用车管理平台"
    },
    {
        "orgId": "7278b5e468b741f199f63b72e45ca970",
        "name": "银川",
        "sort": 17,
        "status": 1,
        "parentId": "E95G0755",
        "remark": null,
        "createMan": "sjadmin",
        "createTime": 1438846005000,
        "address": "江苏省苏州市昆山市花桥镇绿地大道231弄杰座大夏9号楼14F",
        "lat": 31.355616,
        "lng": 120.969057,
        "intro": "云瀚股份有限公司",
        "logo": "38110dde65a64816ab3c75ad55fc7b9e.png",
        "province": "320000",
        "city": "320500",
        "district": null,
        "orgType": 1,
        "platformName": "车联网乘用车管理平台"
    },
    {
        "orgId": "7457a2777cf147798a6ba10982980842",
        "name": "研发部",
        "sort": 9,
        "status": 1,
        "parentId": "R23H2376",
        "remark": null,
        "createMan": "aa372a67d81c482c931abc1935868b1f",
        "createTime": 1437204370000,
        "address": "重庆渝中区上清寺渝中大厦",
        "lat": 29.567625,
        "lng": 106.553142,
        "intro": "四川分公司是……………………",
        "logo": "9030ac9c206f4b1f8c79197e05a7630f.png",
        "province": "500000",
        "city": "500100",
        "district": null,
        "orgType": 1,
        "platformName": "车联网乘用车管理平台"
    },
    {
        "orgId": "789084909235471d9877f548166cb0cd",
        "name": "城南分部门a部",
        "sort": 1,
        "status": 1,
        "parentId": "33f295e8d1794e8383dc8f4605882e44",
        "remark": null,
        "createMan": "a4520648d225407c9c05b9ab713b7eb2",
        "createTime": 1444965861000,
        "address": "重庆渝中区上清寺渝中大厦",
        "lat": 30.461708,
        "lng": 106.639485,
        "intro": "四川分公司是……………………",
        "logo": "9030ac9c206f4b1f8c79197e05a7630f.png",
        "province": "510000",
        "city": "511600",
        "district": null,
        "orgType": 1,
        "platformName": "广安车联网"
    },
    {
        "orgId": "78a74c2a3143409b8c73654671a0dba9",
        "name": "济南部门",
        "sort": 3,
        "status": 1,
        "parentId": "F83F2136",
        "remark": null,
        "createMan": "42bac5261154491a8c1562ed36094b85",
        "createTime": 1439361524000,
        "address": "济南市",
        "lat": 36.669948,
        "lng": 117.000241,
        "intro": "济南市",
        "logo": "4d0d26c2f61646f28d8a3ba432ab617c.png",
        "province": "370000",
        "city": "370100",
        "district": null,
        "orgType": 1,
        "platformName": "车联网乘用车管理平台"
    },
    {
        "orgId": "794cb8081daf452a9889d35000ce2ce7",
        "name": "长寿部门",
        "sort": 3,
        "status": 1,
        "parentId": "M98L0499",
        "remark": null,
        "createMan": "42bac5261154491a8c1562ed36094b85",
        "createTime": 1439360837000,
        "address": "长寿区",
        "lat": 29.831155,
        "lng": 107.089178,
        "intro": "重庆渝中区上清寺渝中大厦",
        "logo": "17fb9ce9c70147ba981544a7b9721f30.png",
        "province": "500000",
        "city": "500100",
        "district": null,
        "orgType": 1,
        "platformName": "车联网乘用车管理平台"
    },
    {
        "orgId": "79873face4854af6ba0f00976e62168b",
        "name": "常用测试数据",
        "sort": 19,
        "status": 1,
        "parentId": "R23H2376",
        "remark": null,
        "createMan": "aa372a67d81c482c931abc1935868b1f",
        "createTime": 1448286513000,
        "address": "重庆渝中区上清寺渝中大厦11111",
        "lat": 29.601044,
        "lng": 106.528852,
        "intro": "四川分公司是……………………\r\n测试二\r\n测试三\r\n测试三",
        "logo": "17fb9ce9c70147ba981544a7b9721f30.png",
        "province": "500000",
        "city": "500100",
        "district": null,
        "orgType": 1,
        "platformName": "车联网乘用车管理平台"
    },
    {
        "orgId": "7c971ef27b0b4c87b9a4c8f7aef96aa7",
        "name": "玉溪部门",
        "sort": 4,
        "status": 1,
        "parentId": "R65W8703",
        "remark": null,
        "createMan": "42bac5261154491a8c1562ed36094b85",
        "createTime": 1445497185000,
        "address": "玉溪市",
        "lat": 24.355998,
        "lng": 102.555353,
        "intro": "重庆思建科技有限公司云南",
        "logo": "17fb9ce9c70147ba981544a7b9721f30.png",
        "province": "530000",
        "city": "530400",
        "district": null,
        "orgType": 1,
        "platformName": "车联网乘用车管理平台"
    },
    {
        "orgId": "7cccf91c725c4330a3b0abf32d0a847e",
        "name": "人力资源部",
        "sort": 1,
        "status": 1,
        "parentId": "S11K8848",
        "remark": null,
        "createMan": "aa372a67d81c482c931abc1935868b1f",
        "createTime": 1439209519000,
        "address": "重庆渝中区上清寺渝中大厦",
        "lat": 30.581253,
        "lng": 104.071108,
        "intro": "四川分公司是……………………",
        "logo": "9030ac9c206f4b1f8c79197e05a7630f.png",
        "province": "510000",
        "city": "510100",
        "district": null,
        "orgType": 1,
        "platformName": "车联网乘用车管理平台"
    },
    {
        "orgId": "7d6e33e717c54ae3815720a14fe48779",
        "name": "已卖车辆",
        "sort": 27,
        "status": 1,
        "parentId": "E95G0755",
        "remark": null,
        "createMan": "sjadmin",
        "createTime": 1438846175000,
        "address": "江苏省苏州市昆山市花桥镇绿地大道231弄杰座大夏9号楼14F",
        "lat": 31.355616,
        "lng": 120.969057,
        "intro": "云瀚股份有限公司",
        "logo": "38110dde65a64816ab3c75ad55fc7b9e.png",
        "province": "320000",
        "city": "320500",
        "district": null,
        "orgType": 1,
        "platformName": "车联网乘用车管理平台"
    },
    {
        "orgId": "7ead268250f9432b95933288c8db8cd5",
        "name": "湖南",
        "sort": 13,
        "status": 1,
        "parentId": "E95G0755",
        "remark": null,
        "createMan": "sjadmin",
        "createTime": 1438845925000,
        "address": "江苏省苏州市昆山市花桥镇绿地大道231弄杰座大夏9号楼14F",
        "lat": 31.355616,
        "lng": 120.969057,
        "intro": "云瀚股份有限公司",
        "logo": "38110dde65a64816ab3c75ad55fc7b9e.png",
        "province": "320000",
        "city": "320500",
        "district": null,
        "orgType": 1,
        "platformName": "车联网乘用车管理平台"
    },
    {
        "orgId": "8380197668f94560a1bb1cf1c3ac287f",
        "name": "珠海部门",
        "sort": 4,
        "status": 1,
        "parentId": "P48J9629",
        "remark": null,
        "createMan": "42bac5261154491a8c1562ed36094b85",
        "createTime": 1439360462000,
        "address": "珠海市",
        "lat": 22.275255,
        "lng": 113.582373,
        "intro": "思建",
        "logo": "17fb9ce9c70147ba981544a7b9721f30.png",
        "province": "440000",
        "city": "440400",
        "district": null,
        "orgType": 1,
        "platformName": "车联网乘用车管理平台"
    },
    {
        "orgId": "83a339fc38244eeb8d182c155962eae7",
        "name": "测试组",
        "sort": 3,
        "status": 1,
        "parentId": "7457a2777cf147798a6ba10982980842",
        "remark": null,
        "createMan": "aa372a67d81c482c931abc1935868b1f",
        "createTime": 1437204477000,
        "address": "重庆渝中区上清寺渝中大厦",
        "lat": 29.567625,
        "lng": 106.553142,
        "intro": "四川分公司是……………………",
        "logo": "9030ac9c206f4b1f8c79197e05a7630f.png",
        "province": "500000",
        "city": "500100",
        "district": null,
        "orgType": 1,
        "platformName": "车联网乘用车管理平台"
    },
    {
        "orgId": "8ae49c23b3e44bf3be5706d40df30f26",
        "name": "河北",
        "sort": 10,
        "status": 1,
        "parentId": "E95G0755",
        "remark": null,
        "createMan": "sjadmin",
        "createTime": 1438845880000,
        "address": "江苏省苏州市昆山市花桥镇绿地大道231弄杰座大夏9号楼14F",
        "lat": 31.355616,
        "lng": 120.969057,
        "intro": "云瀚股份有限公司",
        "logo": "38110dde65a64816ab3c75ad55fc7b9e.png",
        "province": "320000",
        "city": "320500",
        "district": null,
        "orgType": 1,
        "platformName": "车联网乘用车管理平台"
    },
    {
        "orgId": "8d8d494208c740f6b45cc2b41954e815",
        "name": "山东",
        "sort": 19,
        "status": 1,
        "parentId": "E95G0755",
        "remark": null,
        "createMan": "sjadmin",
        "createTime": 1438846037000,
        "address": "江苏省苏州市昆山市花桥镇绿地大道231弄杰座大夏9号楼14F",
        "lat": 31.355616,
        "lng": 120.969057,
        "intro": "云瀚股份有限公司",
        "logo": "38110dde65a64816ab3c75ad55fc7b9e.png",
        "province": "320000",
        "city": "320500",
        "district": null,
        "orgType": 1,
        "platformName": "车联网乘用车管理平台"
    },
    {
        "orgId": "8e1855fde4564067a214e59b9a31bd35",
        "name": "部门广东",
        "sort": 2,
        "status": 1,
        "parentId": "G32C9248",
        "remark": null,
        "createMan": "42bac5261154491a8c1562ed36094b85",
        "createTime": 1437452443000,
        "address": "广东",
        "lat": 22.550918,
        "lng": 114.063309,
        "intro": "广东",
        "logo": "9ab34adb6b294984b39eb760a014513d.jpg",
        "province": "440000",
        "city": "440300",
        "district": null,
        "orgType": 1,
        "platformName": "车联网乘用车管理平台"
    },
    {
        "orgId": "8f5a66d58f3e4867bccf79c2dc3a96fa",
        "name": "山西",
        "sort": 11,
        "status": 1,
        "parentId": "E95G0755",
        "remark": null,
        "createMan": "sjadmin",
        "createTime": 1438845893000,
        "address": "江苏省苏州市昆山市花桥镇绿地大道231弄杰座大夏9号楼14F",
        "lat": 31.355616,
        "lng": 120.969057,
        "intro": "云瀚股份有限公司",
        "logo": "38110dde65a64816ab3c75ad55fc7b9e.png",
        "province": "320000",
        "city": "320500",
        "district": null,
        "orgType": 1,
        "platformName": "车联网乘用车管理平台"
    },
    {
        "orgId": "913a73e632bf471aa35b884e7cd6023d",
        "name": "杭州部门",
        "sort": 1,
        "status": 1,
        "parentId": "L35W2103",
        "remark": null,
        "createMan": "dc866fd0f5a245258f0b9fda7b84f5fe",
        "createTime": 1444965136000,
        "address": "杭州市",
        "lat": 30.280745,
        "lng": 120.164927,
        "intro": "思建",
        "logo": "17fb9ce9c70147ba981544a7b9721f30.png",
        "province": "330000",
        "city": "330100",
        "district": null,
        "orgType": 1,
        "platformName": "思建广东运营平台"
    },
    {
        "orgId": "94c7fe14f9b34d55a21a2a9d5dc633c4",
        "name": "烟台部门",
        "sort": 2,
        "status": 1,
        "parentId": "F83F2136",
        "remark": null,
        "createMan": "42bac5261154491a8c1562ed36094b85",
        "createTime": 1439023204000,
        "address": "烟台市",
        "lat": 37.468092,
        "lng": 121.455934,
        "intro": "烟台市",
        "logo": "4d0d26c2f61646f28d8a3ba432ab617c.png",
        "province": "370000",
        "city": "370600",
        "district": null,
        "orgType": 1,
        "platformName": "车联网乘用车管理平台"
    },
    {
        "orgId": "9690e51b9fa64bc19afa90ba9142866f",
        "name": "部门aaa4",
        "sort": 5,
        "status": 1,
        "parentId": "U21T7672",
        "remark": null,
        "createMan": "42bac5261154491a8c1562ed36094b85",
        "createTime": 1439023078000,
        "address": "渝北区",
        "lat": 29.711753,
        "lng": 106.649655,
        "intro": "渝北区",
        "logo": "dd2c5955942140fd9df2d707cc6a001d.jpg",
        "province": "500000",
        "city": "500100",
        "district": null,
        "orgType": 1,
        "platformName": "车联网乘用车管理平台"
    },
    {
        "orgId": "9c13f3a6c6c8455188bf64d96ad06647",
        "name": "部门a4",
        "sort": 11,
        "status": 1,
        "parentId": "S98L9288",
        "remark": null,
        "createMan": "42bac5261154491a8c1562ed36094b85",
        "createTime": 1439016418000,
        "address": "重庆渝中区上清寺渝中大厦",
        "lat": 29.559772,
        "lng": 106.548542,
        "intro": "思建",
        "logo": "17fb9ce9c70147ba981544a7b9721f30.png",
        "province": "500000",
        "city": "500100",
        "district": null,
        "orgType": 1,
        "platformName": "车联网乘用车管理平台"
    },
    {
        "orgId": "9c5bb36bad9d40aca2aeb159a73f885b",
        "name": "运维部",
        "sort": 12,
        "status": 1,
        "parentId": "R23H2376",
        "remark": null,
        "createMan": "aa372a67d81c482c931abc1935868b1f",
        "createTime": 1437204510000,
        "address": "重庆渝中区上清寺渝中大厦",
        "lat": 29.567625,
        "lng": 106.553142,
        "intro": "四川分公司是……………………",
        "logo": "9030ac9c206f4b1f8c79197e05a7630f.png",
        "province": "500000",
        "city": "500100",
        "district": null,
        "orgType": 1,
        "platformName": "车联网乘用车管理平台"
    },
    {
        "orgId": "9d31a6268c6545b6ba515150abca1e9a",
        "name": "总部",
        "sort": 1,
        "status": 1,
        "parentId": "E95G0755",
        "remark": null,
        "createMan": "sjadmin",
        "createTime": 1438845716000,
        "address": "江苏省苏州市昆山市花桥镇绿地大道231弄杰座大夏9号楼14F",
        "lat": 31.355616,
        "lng": 120.969057,
        "intro": "云瀚股份有限公司",
        "logo": "38110dde65a64816ab3c75ad55fc7b9e.png",
        "province": "320000",
        "city": "320500",
        "district": null,
        "orgType": 1,
        "platformName": "车联网乘用车管理平台"
    },
    {
        "orgId": "9f11dcc36e0449efa0d1adcc86ac4691",
        "name": "运营部",
        "sort": 3,
        "status": 1,
        "parentId": "R23H2376",
        "remark": null,
        "createMan": "aa372a67d81c482c931abc1935868b1f",
        "createTime": 1438235402000,
        "address": "重庆渝中区上清寺渝中大厦",
        "lat": 29.567625,
        "lng": 106.553142,
        "intro": "四川分公司是……………………",
        "logo": "17fb9ce9c70147ba981544a7b9721f30.png",
        "province": "500000",
        "city": "500100",
        "district": null,
        "orgType": 1,
        "platformName": "车联网乘用车管理平台"
    },
    {
        "orgId": "A00A0001",
        "name": "思建科技",
        "sort": 1,
        "status": 1,
        "parentId": "",
        "remark": "",
        "createMan": "admin",
        "createTime": 1436875200000,
        "address": "重庆渝中区上清寺渝中大厦",
        "lat": 29.567625,
        "lng": 106.553142,
        "intro": "思建科技",
        "logo": "17fb9ce9c70147ba981544a7b9721f30.png",
        "province": "500000",
        "city": "500100",
        "district": "500103",
        "orgType": 2,
        "platformName": "车联网乘用车管理平台"
    },
    {
        "orgId": "A00A0002",
        "name": "重庆思建科技有限公司",
        "sort": 1,
        "status": 1,
        "parentId": "A00A0001",
        "remark": "",
        "createMan": "admin",
        "createTime": 1436875200000,
        "address": "重庆渝中区上清寺渝中大厦",
        "lat": 29.567625,
        "lng": 106.553142,
        "intro": "重庆思建科技有限公司",
        "logo": "3f53ab063fc14b2a967ee96c7b2369bf.png",
        "province": "500000",
        "city": "500100",
        "district": "500103",
        "orgType": 2,
        "platformName": "车联网乘用车管理平台"
    },
    {
        "orgId": "A00A0003",
        "name": "思建科技测试机构",
        "sort": 1,
        "status": 1,
        "parentId": "A00A0001",
        "remark": "",
        "createMan": "admin",
        "createTime": 1436875200000,
        "address": "重庆渝中区上清寺渝中大厦",
        "lat": 29.567625,
        "lng": 106.553142,
        "intro": "思建科技测试机构",
        "logo": "17fb9ce9c70147ba981544a7b9721f30.png",
        "province": "500000",
        "city": "500100",
        "district": "500103",
        "orgType": 2,
        "platformName": "车联网乘用车管理平台"
    },
    {
        "orgId": "A21B1407",
        "name": "北京公司",
        "sort": 7,
        "status": 1,
        "parentId": "W13B2292",
        "remark": "",
        "createMan": "admin",
        "createTime": 1451958044000,
        "address": "北京市",
        "lat": 39.9101,
        "lng": 116.416608,
        "intro": null,
        "logo": null,
        "province": "110000",
        "city": "110100",
        "district": null,
        "orgType": 2,
        "platformName": "车联网平台"
    },
    {
        "orgId": "a50485f36dd14d13a80d35ac9e41e60a",
        "name": "行政部",
        "sort": 5,
        "status": 1,
        "parentId": "M63H0907",
        "remark": null,
        "createMan": "aa372a67d81c482c931abc1935868b1f",
        "createTime": 1438660222000,
        "address": "重庆渝中区上清寺渝中大厦",
        "lat": 29.567625,
        "lng": 106.553142,
        "intro": "四川分公司是……………………\r\n测试二\r\n测试三",
        "logo": "6bc489d33d104ef588782feeed823634.jpg",
        "province": "500000",
        "city": "500100",
        "district": null,
        "orgType": 1,
        "platformName": "车联网乘用车管理平台"
    },
    {
        "orgId": "a59a298e00934fe1a6c5afd5fd412e09",
        "name": "美工部",
        "sort": 4,
        "status": 1,
        "parentId": "M63H0907",
        "remark": null,
        "createMan": "aa372a67d81c482c931abc1935868b1f",
        "createTime": 1438660212000,
        "address": "重庆渝中区上清寺渝中大厦",
        "lat": 29.567625,
        "lng": 106.553142,
        "intro": "四川分公司是……………………\r\n测试二\r\n测试三",
        "logo": "6bc489d33d104ef588782feeed823634.jpg",
        "province": "500000",
        "city": "500100",
        "district": null,
        "orgType": 1,
        "platformName": "车联网乘用车管理平台"
    },
    {
        "orgId": "A69L5908",
        "name": "西北区",
        "sort": 6,
        "status": 1,
        "parentId": "A00A0002",
        "remark": null,
        "createMan": "admin",
        "createTime": 1450666958000,
        "address": "重庆渝中区上清寺渝中大厦",
        "lat": 29.567625,
        "lng": 106.553142,
        "intro": "重庆思建科技有限公司",
        "logo": "3f53ab063fc14b2a967ee96c7b2369bf.png",
        "province": "500000",
        "city": "500100",
        "district": null,
        "orgType": 2,
        "platformName": "车联网乘用车管理平台"
    },
    {
        "orgId": "a9559a2c679e443485e79e0f7d08aa00",
        "name": "部门aaa1",
        "sort": 2,
        "status": 1,
        "parentId": "U21T7672",
        "remark": null,
        "createMan": "42bac5261154491a8c1562ed36094b85",
        "createTime": 1439023054000,
        "address": "渝北区",
        "lat": 29.705354,
        "lng": 106.644337,
        "intro": "渝北区",
        "logo": "dd2c5955942140fd9df2d707cc6a001d.jpg",
        "province": "500000",
        "city": "500100",
        "district": null,
        "orgType": 1,
        "platformName": "车联网乘用车管理平台"
    },
    {
        "orgId": "ab97abfc1bf24b95b41868ce332a1ff6",
        "name": "美容连锁",
        "sort": 29,
        "status": 1,
        "parentId": "E95G0755",
        "remark": null,
        "createMan": "sjadmin",
        "createTime": 1438846216000,
        "address": "江苏省苏州市昆山市花桥镇绿地大道231弄杰座大夏9号楼14F",
        "lat": 31.355616,
        "lng": 120.969057,
        "intro": "云瀚股份有限公司",
        "logo": "38110dde65a64816ab3c75ad55fc7b9e.png",
        "province": "320000",
        "city": "320500",
        "district": null,
        "orgType": 1,
        "platformName": "车联网乘用车管理平台"
    },
    {
        "orgId": "ac0c4b61f3e944ad8729c6419ca796a2",
        "name": "江苏",
        "sort": 14,
        "status": 1,
        "parentId": "E95G0755",
        "remark": null,
        "createMan": "sjadmin",
        "createTime": 1438845943000,
        "address": "江苏省苏州市昆山市花桥镇绿地大道231弄杰座大夏9号楼14F",
        "lat": 31.355616,
        "lng": 120.969057,
        "intro": "云瀚股份有限公司",
        "logo": "38110dde65a64816ab3c75ad55fc7b9e.png",
        "province": "320000",
        "city": "320500",
        "district": null,
        "orgType": 1,
        "platformName": "车联网乘用车管理平台"
    },
    {
        "orgId": "acb6b025729044ca8c8ff26d9a9147b8",
        "name": "内蒙",
        "sort": 15,
        "status": 1,
        "parentId": "E95G0755",
        "remark": null,
        "createMan": "sjadmin",
        "createTime": 1438845956000,
        "address": "江苏省苏州市昆山市花桥镇绿地大道231弄杰座大夏9号楼14F",
        "lat": 31.355616,
        "lng": 120.969057,
        "intro": "云瀚股份有限公司",
        "logo": "38110dde65a64816ab3c75ad55fc7b9e.png",
        "province": "320000",
        "city": "320500",
        "district": null,
        "orgType": 1,
        "platformName": "车联网乘用车管理平台"
    },
    {
        "orgId": "b3bcbd1a6bf548c4bd44fc8382c8fefa",
        "name": "运营总部",
        "sort": 28,
        "status": 1,
        "parentId": "E95G0755",
        "remark": null,
        "createMan": "sjadmin",
        "createTime": 1438846198000,
        "address": "江苏省苏州市昆山市花桥镇绿地大道231弄杰座大夏9号楼14F",
        "lat": 31.355616,
        "lng": 120.969057,
        "intro": "云瀚股份有限公司",
        "logo": "38110dde65a64816ab3c75ad55fc7b9e.png",
        "province": "320000",
        "city": "320500",
        "district": null,
        "orgType": 1,
        "platformName": "车联网乘用车管理平台"
    },
    {
        "orgId": "B72G6129",
        "name": "xx11",
        "sort": 11,
        "status": 3,
        "parentId": "H65C6451",
        "remark": "xxxx",
        "createMan": "d619725960934060a8f81b4c511a1ff2",
        "createTime": 1452154277000,
        "address": "四川省邻水县丰禾镇",
        "lat": 37.075437,
        "lng": 114.51468,
        "intro": null,
        "logo": null,
        "province": "130000",
        "city": "130500",
        "district": null,
        "orgType": 2,
        "platformName": "测试平台"
    },
    {
        "orgId": "B73B4321",
        "name": "晓晓01z",
        "sort": 2,
        "status": 1,
        "parentId": "L13A8426",
        "remark": "ces",
        "createMan": "admin",
        "createTime": 1451894615000,
        "address": "浙江省1",
        "lat": 40.847024,
        "lng": 111.762309,
        "intro": null,
        "logo": "719dc0096fc34d5d9e698757fc9c8261.jpg",
        "province": "150000",
        "city": "150100",
        "district": null,
        "orgType": 2,
        "platformName": "测试平台"
    },
    {
        "orgId": "b779d8be56b741dd809b03e7741d7b51",
        "name": "丰禾镇部门",
        "sort": 1,
        "status": 1,
        "parentId": "E81D3180",
        "remark": null,
        "createMan": "a4520648d225407c9c05b9ab713b7eb2",
        "createTime": 1444965899000,
        "address": "重庆渝中区上清寺渝中大厦",
        "lat": 29.567625,
        "lng": 106.553142,
        "intro": "四川分公司是……………………",
        "logo": "9030ac9c206f4b1f8c79197e05a7630f.png",
        "province": "500000",
        "city": "500100",
        "district": null,
        "orgType": 1,
        "platformName": "车联网乘用车管理平台"
    },
    {
        "orgId": "b7d81eac8d114f3ebabf9e73baf36302",
        "name": "部门a1",
        "sort": 4,
        "status": 1,
        "parentId": "G32C9248",
        "remark": null,
        "createMan": "42bac5261154491a8c1562ed36094b85",
        "createTime": 1439016431000,
        "address": "重庆市朝天门",
        "lat": 29.567793,
        "lng": 106.589217,
        "intro": "",
        "logo": "9ab34adb6b294984b39eb760a014513d.jpg",
        "province": "500000",
        "city": "500100",
        "district": null,
        "orgType": 1,
        "platformName": "车联网乘用车管理平台"
    },
    {
        "orgId": "bc2cb9e92e664d68b2c910db58da3dad",
        "name": "宁波部门",
        "sort": 3,
        "status": 1,
        "parentId": "L35W2103",
        "remark": null,
        "createMan": "admin",
        "createTime": 1450680161000,
        "address": "宁波市",
        "lat": 29.88049,
        "lng": 121.553416,
        "intro": "思建",
        "logo": "17fb9ce9c70147ba981544a7b9721f30.png",
        "province": "330000",
        "city": "330200",
        "district": null,
        "orgType": 1,
        "platformName": "思建广东运营平台"
    },
    {
        "orgId": "be38c9d849604e119bd48ff142fc2a8a",
        "name": "福州部门",
        "sort": 2,
        "status": 1,
        "parentId": "R61N0068",
        "remark": null,
        "createMan": "42bac5261154491a8c1562ed36094b85",
        "createTime": 1439360590000,
        "address": "福州市",
        "lat": 26.084471,
        "lng": 119.302579,
        "intro": "重庆渝中区上清寺渝中大厦",
        "logo": "17fb9ce9c70147ba981544a7b9721f30.png",
        "province": "350000",
        "city": "350100",
        "district": null,
        "orgType": 1,
        "platformName": "车联网乘用车管理平台"
    },
    {
        "orgId": "C06M6062",
        "name": "培训演示",
        "sort": 2,
        "status": 1,
        "parentId": "E14V2066",
        "remark": null,
        "createMan": "ffea0d82360646ebbda7efdbdf4988ca",
        "createTime": 1450946625000,
        "address": "重庆渝中区上清寺渝中大厦",
        "lat": 29.567625,
        "lng": 106.553142,
        "intro": "思建科技测试机构",
        "logo": "17fb9ce9c70147ba981544a7b9721f30.png",
        "province": "350000",
        "city": "",
        "district": null,
        "orgType": 2,
        "platformName": "车联网乘用车管理平台"
    },
    {
        "orgId": "c5942076462f4ca7b537fcfaba07030c",
        "name": "子部门a2",
        "sort": 1,
        "status": 1,
        "parentId": "35ac54755d4847d59571baca7a9e1913",
        "remark": null,
        "createMan": "42bac5261154491a8c1562ed36094b85",
        "createTime": 1439259309000,
        "address": "重庆渝中区上清寺渝中大厦",
        "lat": 29.567625,
        "lng": 106.553142,
        "intro": "思建科技测试机构",
        "logo": "edff686b18ad4830b9b33ffcc3f31c5c.jpg",
        "province": "500000",
        "city": "500100",
        "district": null,
        "orgType": 1,
        "platformName": "车联网乘用车管理平台"
    },
    {
        "orgId": "c65e93041758497ab036f245cfc85160",
        "name": "延安",
        "sort": 22,
        "status": 1,
        "parentId": "E95G0755",
        "remark": null,
        "createMan": "sjadmin",
        "createTime": 1438846083000,
        "address": "江苏省苏州市昆山市花桥镇绿地大道231弄杰座大夏9号楼14F",
        "lat": 31.355616,
        "lng": 120.969057,
        "intro": "云瀚股份有限公司",
        "logo": "38110dde65a64816ab3c75ad55fc7b9e.png",
        "province": "320000",
        "city": "320500",
        "district": null,
        "orgType": 1,
        "platformName": "车联网乘用车管理平台"
    },
    {
        "orgId": "caa88a08ad654996aa2c910ddf86b0ae",
        "name": "渝北部门",
        "sort": 4,
        "status": 1,
        "parentId": "M98L0499",
        "remark": null,
        "createMan": "42bac5261154491a8c1562ed36094b85",
        "createTime": 1439360927000,
        "address": "渝北区",
        "lat": 29.668791,
        "lng": 106.64484,
        "intro": "重庆渝中区上清寺渝中大厦",
        "logo": "17fb9ce9c70147ba981544a7b9721f30.png",
        "province": "500000",
        "city": "500100",
        "district": null,
        "orgType": 1,
        "platformName": "车联网乘用车管理平台"
    },
    {
        "orgId": "cacb583269ef4cf881f6703556679a6b",
        "name": "人事部",
        "sort": 6,
        "status": 1,
        "parentId": "M63H0907",
        "remark": null,
        "createMan": "aa372a67d81c482c931abc1935868b1f",
        "createTime": 1438660230000,
        "address": "重庆渝中区上清寺渝中大厦",
        "lat": 29.567625,
        "lng": 106.553142,
        "intro": "四川分公司是……………………\r\n测试二\r\n测试三",
        "logo": "6bc489d33d104ef588782feeed823634.jpg",
        "province": "500000",
        "city": "500100",
        "district": null,
        "orgType": 1,
        "platformName": "车联网乘用车管理平台"
    },
    {
        "orgId": "caee0abb779f4fa0b8345841701b89c5",
        "name": "市场部",
        "sort": 2,
        "status": 1,
        "parentId": "R23H2376",
        "remark": null,
        "createMan": "aa372a67d81c482c931abc1935868b1f",
        "createTime": 1437204287000,
        "address": "重庆渝中区上清寺渝中大厦",
        "lat": 29.567625,
        "lng": 106.553142,
        "intro": "四川分公司是……………………test11111",
        "logo": "5f159eee855d4a89a9f713e326f2a224.gif",
        "province": "500000",
        "city": "500100",
        "district": null,
        "orgType": 1,
        "platformName": "车联网乘用车管理平台"
    },
    {
        "orgId": "cde136af45374ad399421a10753c3c3a",
        "name": "车队管理平台",
        "sort": 1,
        "status": 1,
        "parentId": "55714b3859d04786a000c527e944a11c",
        "remark": null,
        "createMan": "aa372a67d81c482c931abc1935868b1f",
        "createTime": 1437204397000,
        "address": "重庆渝中区上清寺渝中大厦",
        "lat": 29.567625,
        "lng": 106.553142,
        "intro": "车队管理系统专做……",
        "logo": "92709ec2b1e448adb7aca3634558ce5a.gif",
        "province": "500000",
        "city": "500100",
        "district": null,
        "orgType": 1,
        "platformName": "车联网乘用车管理平台"
    },
    {
        "orgId": "cf1456d663e7443dbdd7cc683c4cee82",
        "name": "开发组",
        "sort": 2,
        "status": 1,
        "parentId": "7457a2777cf147798a6ba10982980842",
        "remark": null,
        "createMan": "aa372a67d81c482c931abc1935868b1f",
        "createTime": 1437204470000,
        "address": "重庆渝中区上清寺渝中大厦",
        "lat": 29.567625,
        "lng": 106.553142,
        "intro": "四川分公司是……………………",
        "logo": "9030ac9c206f4b1f8c79197e05a7630f.png",
        "province": "500000",
        "city": "500100",
        "district": null,
        "orgType": 1,
        "platformName": "车联网乘用车管理平台"
    },
    {
        "orgId": "d1d6b471104b466aa2523c0167bfab64",
        "name": "青海",
        "sort": 18,
        "status": 1,
        "parentId": "E95G0755",
        "remark": null,
        "createMan": "sjadmin",
        "createTime": 1438846019000,
        "address": "江苏省苏州市昆山市花桥镇绿地大道231弄杰座大夏9号楼14F",
        "lat": 31.355616,
        "lng": 120.969057,
        "intro": "云瀚股份有限公司",
        "logo": "38110dde65a64816ab3c75ad55fc7b9e.png",
        "province": "320000",
        "city": "320500",
        "district": null,
        "orgType": 1,
        "platformName": "车联网乘用车管理平台"
    },
    {
        "orgId": "D32M0741",
        "name": "华中三区",
        "sort": 3,
        "status": 1,
        "parentId": "H65C6451",
        "remark": "",
        "createMan": "admin",
        "createTime": 1451455729000,
        "address": "洛阳市",
        "lat": 29.567625,
        "lng": 106.553142,
        "intro": "重庆思建科技有限公司",
        "logo": null,
        "province": "410000",
        "city": "410300",
        "district": null,
        "orgType": 2,
        "platformName": "车联网乘用车管理平台"
    },
    {
        "orgId": "D46M5985",
        "name": "华南二区",
        "sort": 2,
        "status": 1,
        "parentId": "V25F7980",
        "remark": null,
        "createMan": "admin",
        "createTime": 1451459584000,
        "address": "大同市",
        "lat": 40.078675,
        "lng": 113.3118,
        "intro": "重庆思建科技有限公司",
        "logo": "3f53ab063fc14b2a967ee96c7b2369bf.png",
        "province": "140000",
        "city": "140200",
        "district": null,
        "orgType": 2,
        "platformName": "车联网乘用车管理平台"
    },
    {
        "orgId": "D59B2318",
        "name": "华中一区",
        "sort": 1,
        "status": 1,
        "parentId": "H65C6451",
        "remark": null,
        "createMan": "admin",
        "createTime": 1451455554000,
        "address": "武汉市",
        "lat": 30.601599,
        "lng": 114.310358,
        "intro": "重庆思建科技有限公司",
        "logo": "3f53ab063fc14b2a967ee96c7b2369bf.png",
        "province": "420000",
        "city": "420100",
        "district": null,
        "orgType": 2,
        "platformName": "车联网乘用车管理平台"
    },
    {
        "orgId": "d8c88791100f46a88c6026f45c329f2b",
        "name": "云南",
        "sort": 3,
        "status": 1,
        "parentId": "E95G0755",
        "remark": null,
        "createMan": "sjadmin",
        "createTime": 1438845753000,
        "address": "江苏省苏州市昆山市花桥镇绿地大道231弄杰座大夏9号楼14F",
        "lat": 31.355616,
        "lng": 120.969057,
        "intro": "云瀚股份有限公司",
        "logo": "38110dde65a64816ab3c75ad55fc7b9e.png",
        "province": "320000",
        "city": "320500",
        "district": null,
        "orgType": 1,
        "platformName": "车联网乘用车管理平台"
    },
    {
        "orgId": "db335a626ba6429cad910a71eda9c363",
        "name": "（上海）",
        "sort": 14,
        "status": 1,
        "parentId": "S98L9288",
        "remark": null,
        "createMan": "42bac5261154491a8c1562ed36094b85",
        "createTime": 1442977765000,
        "address": "上海市",
        "lat": 31.235502,
        "lng": 121.48304,
        "intro": "北京市",
        "logo": "1b33375d22fa4a3c9ccd1c3ac93a7a1b.png",
        "province": "310000",
        "city": "310100",
        "district": null,
        "orgType": 1,
        "platformName": "车联网乘用车管理平台"
    },
    {
        "orgId": "db8e1bebf63b4f6bbe6e9ef29edec905",
        "name": "xx10",
        "sort": 6,
        "status": 1,
        "parentId": "L13A8426",
        "remark": null,
        "createMan": "admin",
        "createTime": 1452076220000,
        "address": "重庆渝中区上清寺渝中大厦",
        "lat": 29.567625,
        "lng": 106.553142,
        "intro": "重庆思建科技有限公司",
        "logo": "3f53ab063fc14b2a967ee96c7b2369bf.png",
        "province": "500000",
        "city": "500100",
        "district": null,
        "orgType": 1,
        "platformName": "车联网乘用车管理平台"
    },
    {
        "orgId": "dde1433cdbc04b71af29468aa4cc2513",
        "name": "部门重庆",
        "sort": 1,
        "status": 1,
        "parentId": "Q25L3473",
        "remark": null,
        "createMan": "admin",
        "createTime": 1450667470000,
        "address": "重庆渝中区上清寺渝中大厦",
        "lat": 29.567625,
        "lng": 106.553142,
        "intro": "重庆思建科技有限公司",
        "logo": "3f53ab063fc14b2a967ee96c7b2369bf.png",
        "province": "500000",
        "city": "500100",
        "district": null,
        "orgType": 1,
        "platformName": "车联网乘用车管理平台"
    },
    {
        "orgId": "de83d19103e6430c9aa877bd982c3157",
        "name": "市场部",
        "sort": 7,
        "status": 1,
        "parentId": "M63H0907",
        "remark": null,
        "createMan": "aa372a67d81c482c931abc1935868b1f",
        "createTime": 1438660237000,
        "address": "重庆渝中区上清寺渝中大厦",
        "lat": 29.567625,
        "lng": 106.553142,
        "intro": "四川分公司是……………………\r\n测试二\r\n测试三",
        "logo": "6bc489d33d104ef588782feeed823634.jpg",
        "province": "500000",
        "city": "500100",
        "district": null,
        "orgType": 1,
        "platformName": "车联网乘用车管理平台"
    },
    {
        "orgId": "e0d7b970aaab47b8b36e2a112e631ef7",
        "name": "温州部门",
        "sort": 2,
        "status": 1,
        "parentId": "L35W2103",
        "remark": null,
        "createMan": "admin",
        "createTime": 1450680136000,
        "address": "温州市",
        "lat": 28.002052,
        "lng": 120.70957,
        "intro": "思建",
        "logo": "17fb9ce9c70147ba981544a7b9721f30.png",
        "province": "330000",
        "city": "330300",
        "district": null,
        "orgType": 1,
        "platformName": "思建广东运营平台"
    },
    {
        "orgId": "E14V2066",
        "name": "技术支持测试",
        "sort": 1,
        "status": 1,
        "parentId": "A00A0003",
        "remark": null,
        "createMan": "testadmin",
        "createTime": 1450751514000,
        "address": "重庆渝中区上清寺渝中大厦",
        "lat": 29.567625,
        "lng": 106.553142,
        "intro": "思建科技测试机构",
        "logo": "17fb9ce9c70147ba981544a7b9721f30.png",
        "province": "500000",
        "city": "500100",
        "district": null,
        "orgType": 2,
        "platformName": "车联网乘用车管理平台"
    },
    {
        "orgId": "e1a0acb21d78415f88e092d86afe33c8",
        "name": "（北京）",
        "sort": 13,
        "status": 1,
        "parentId": "S98L9288",
        "remark": null,
        "createMan": "42bac5261154491a8c1562ed36094b85",
        "createTime": 1442977554000,
        "address": "北京市",
        "lat": 39.917377,
        "lng": 116.41032,
        "intro": "北京市",
        "logo": "ef9bd87d0bbc4819b406beff95f13e27.jpg",
        "province": "110000",
        "city": "110100",
        "district": null,
        "orgType": 1,
        "platformName": "车联网乘用车管理平台"
    },
    {
        "orgId": "e5948480966f4fcab20af2cca8b2144a",
        "name": "达州子部门",
        "sort": 1,
        "status": 1,
        "parentId": "N35N1087",
        "remark": null,
        "createMan": "aa372a67d81c482c931abc1935868b1f",
        "createTime": 1440126794000,
        "address": "达州",
        "lat": 31.200881,
        "lng": 107.51694,
        "intro": "达州子部门……………",
        "logo": "9030ac9c206f4b1f8c79197e05a7630f.png",
        "province": "510000",
        "city": "511700",
        "district": null,
        "orgType": 1,
        "platformName": "车联网乘用车管理平台"
    },
    {
        "orgId": "E65U6829",
        "name": "南充分公司",
        "sort": 15,
        "status": 1,
        "parentId": "R23H2376",
        "remark": null,
        "createMan": "aa372a67d81c482c931abc1935868b1f",
        "createTime": 1437205811000,
        "address": "重庆渝中区上清寺渝中大厦",
        "lat": 29.567625,
        "lng": 106.553142,
        "intro": "四川分公司是……………………",
        "logo": "9030ac9c206f4b1f8c79197e05a7630f.png",
        "province": "500000",
        "city": "500100",
        "district": null,
        "orgType": 2,
        "platformName": "车联网乘用车管理平台"
    },
    {
        "orgId": "E81D3180",
        "name": "邻水分公司",
        "sort": 1,
        "status": 1,
        "parentId": "L57U8557",
        "remark": null,
        "createMan": "aa372a67d81c482c931abc1935868b1f",
        "createTime": 1437205823000,
        "address": "重庆渝中区上清寺渝中大厦",
        "lat": 29.567625,
        "lng": 106.553142,
        "intro": "四川分公司是……………………",
        "logo": "9030ac9c206f4b1f8c79197e05a7630f.png",
        "province": "500000",
        "city": "500100",
        "district": null,
        "orgType": 2,
        "platformName": "车联网乘用车管理平台"
    },
    {
        "orgId": "e95a138e339642d4b2c401fb2837bbf3",
        "name": "普洱部门",
        "sort": 3,
        "status": 1,
        "parentId": "R65W8703",
        "remark": null,
        "createMan": "42bac5261154491a8c1562ed36094b85",
        "createTime": 1445497161000,
        "address": "普洱市",
        "lat": 22.832719,
        "lng": 100.975756,
        "intro": "重庆思建科技有限公司云南",
        "logo": "17fb9ce9c70147ba981544a7b9721f30.png",
        "province": "530000",
        "city": "530800",
        "district": null,
        "orgType": 1,
        "platformName": "车联网乘用车管理平台"
    },
    {
        "orgId": "E95G0755",
        "name": "云瀚股份",
        "sort": 1,
        "status": 1,
        "parentId": "P38Y4338",
        "remark": "",
        "createMan": "sjadmin",
        "createTime": 1450610572000,
        "address": "江苏省苏州市昆山市花桥镇绿地大道231弄杰座大夏9号楼14F",
        "lat": 31.355616,
        "lng": 120.969057,
        "intro": "重庆思建科技有限公司",
        "logo": null,
        "province": "650000",
        "city": "652700",
        "district": null,
        "orgType": 2,
        "platformName": "车联网乘用车管理平台"
    },
    {
        "orgId": "e966233309f4435f8c9403511a00c99c",
        "name": "深圳部门",
        "sort": 1,
        "status": 1,
        "parentId": "P48J9629",
        "remark": null,
        "createMan": "42bac5261154491a8c1562ed36094b85",
        "createTime": 1439050986000,
        "address": "深圳市",
        "lat": 22.549516,
        "lng": 114.070136,
        "intro": "思建",
        "logo": "17fb9ce9c70147ba981544a7b9721f30.png",
        "province": "440000",
        "city": "440300",
        "district": null,
        "orgType": 1,
        "platformName": "车联网乘用车管理平台"
    },
    {
        "orgId": "ea5542ab2cff4489a02c0d68ed3c9645",
        "name": "研发部",
        "sort": 2,
        "status": 1,
        "parentId": "M63H0907",
        "remark": null,
        "createMan": "aa372a67d81c482c931abc1935868b1f",
        "createTime": 1438660193000,
        "address": "重庆渝中区上清寺渝中大厦",
        "lat": 29.567625,
        "lng": 106.553142,
        "intro": "四川分公司是……………………\r\n测试二\r\n测试三",
        "logo": "6bc489d33d104ef588782feeed823634.jpg",
        "province": "500000",
        "city": "500100",
        "district": null,
        "orgType": 1,
        "platformName": "车联网乘用车管理平台"
    },
    {
        "orgId": "ed2d80e667004b33b62792856f4926b2",
        "name": "产品组",
        "sort": 1,
        "status": 1,
        "parentId": "7457a2777cf147798a6ba10982980842",
        "remark": null,
        "createMan": "aa372a67d81c482c931abc1935868b1f",
        "createTime": 1437204462000,
        "address": "重庆渝中区上清寺渝中大厦",
        "lat": 29.567625,
        "lng": 106.553142,
        "intro": "四川分公司是……………………",
        "logo": "9030ac9c206f4b1f8c79197e05a7630f.png",
        "province": "500000",
        "city": "500100",
        "district": null,
        "orgType": 1,
        "platformName": "车联网乘用车管理平台"
    },
    {
        "orgId": "F01Q1693",
        "name": "万州公司",
        "sort": 5,
        "status": 2,
        "parentId": "W13B2292",
        "remark": "测试正式账号在web系统权限是否正常，是否能正常登录",
        "createMan": "admin",
        "createTime": 1451875970000,
        "address": "重庆市万州区",
        "lat": 29.486775,
        "lng": 106.608782,
        "intro": null,
        "logo": null,
        "province": "500000",
        "city": "500100",
        "district": null,
        "orgType": 2,
        "platformName": "车联网平台"
    },
    {
        "orgId": "f06ce30220514883a639ae6b6597c5da",
        "name": "四川",
        "sort": 20,
        "status": 1,
        "parentId": "E95G0755",
        "remark": null,
        "createMan": "sjadmin",
        "createTime": 1438846053000,
        "address": "江苏省苏州市昆山市花桥镇绿地大道231弄杰座大夏9号楼14F",
        "lat": 31.355616,
        "lng": 120.969057,
        "intro": "云瀚股份有限公司",
        "logo": "38110dde65a64816ab3c75ad55fc7b9e.png",
        "province": "320000",
        "city": "320500",
        "district": null,
        "orgType": 1,
        "platformName": "车联网乘用车管理平台"
    },
    {
        "orgId": "f1111a22ffdb48b7ac682923db272e9d",
        "name": "嘉兴部门",
        "sort": 4,
        "status": 1,
        "parentId": "L35W2103",
        "remark": null,
        "createMan": "admin",
        "createTime": 1450680257000,
        "address": "浙江省",
        "lat": 30.74967,
        "lng": 120.764165,
        "intro": "思建",
        "logo": "17fb9ce9c70147ba981544a7b9721f30.png",
        "province": "330000",
        "city": "330400",
        "district": null,
        "orgType": 1,
        "platformName": "思建广东运营平台"
    },
    {
        "orgId": "f160a66ea6174792bd510e297f39eb5d",
        "name": "云阳部门",
        "sort": 2,
        "status": 1,
        "parentId": "M98L0499",
        "remark": null,
        "createMan": "42bac5261154491a8c1562ed36094b85",
        "createTime": 1439360814000,
        "address": "云阳县",
        "lat": 30.935971,
        "lng": 108.710727,
        "intro": "重庆渝中区上清寺渝中大厦",
        "logo": "17fb9ce9c70147ba981544a7b9721f30.png",
        "province": "500000",
        "city": "500100",
        "district": null,
        "orgType": 1,
        "platformName": "车联网乘用车管理平台"
    },
    {
        "orgId": "F25Z8039",
        "name": "aasa",
        "sort": 3,
        "status": 1,
        "parentId": "A69L5908",
        "remark": "11111111111",
        "createMan": "",
        "createTime": 1452150632000,
        "address": "11111111111",
        "lat": 29.567651,
        "lng": 106.553141,
        "intro": null,
        "logo": null,
        "province": "120000",
        "city": "120100",
        "district": null,
        "orgType": 2,
        "platformName": "asada"
    },
    {
        "orgId": "F42P0656",
        "name": "xx2",
        "sort": 3,
        "status": 1,
        "parentId": "K28B0522",
        "remark": "ces",
        "createMan": "admin",
        "createTime": 1451894695000,
        "address": "浙江省",
        "lat": 35.498858,
        "lng": 112.87119,
        "intro": null,
        "logo": null,
        "province": "140000",
        "city": "140500",
        "district": null,
        "orgType": 2,
        "platformName": "测试平台"
    },
    {
        "orgId": "F83F2136",
        "name": "机构山东",
        "sort": 5,
        "status": 1,
        "parentId": "S98L9288",
        "remark": null,
        "createMan": "42bac5261154491a8c1562ed36094b85",
        "createTime": 1437981781000,
        "address": "山东省",
        "lat": 36.074983,
        "lng": 120.391673,
        "intro": "山东省",
        "logo": "9ab34adb6b294984b39eb760a014513d.jpg",
        "province": "370000",
        "city": "370200",
        "district": null,
        "orgType": 2,
        "platformName": "车联网乘用车管理平台"
    },
    {
        "orgId": "f9c7294f04ec48b490181c396edf3e8e",
        "name": "上海分公司",
        "sort": 26,
        "status": 1,
        "parentId": "E95G0755",
        "remark": null,
        "createMan": "sjadmin",
        "createTime": 1438846149000,
        "address": "江苏省苏州市昆山市花桥镇绿地大道231弄杰座大夏9号楼14F",
        "lat": 31.355616,
        "lng": 120.969057,
        "intro": "云瀚股份有限公司",
        "logo": "38110dde65a64816ab3c75ad55fc7b9e.png",
        "province": "320000",
        "city": "320500",
        "district": null,
        "orgType": 1,
        "platformName": "车联网乘用车管理平台"
    },
    {
        "orgId": "G02Y6284",
        "name": "xx9",
        "sort": 2,
        "status": 4,
        "parentId": "P38Y4338",
        "remark": "xx",
        "createMan": "d619725960934060a8f81b4c511a1ff2",
        "createTime": 1452150405000,
        "address": "浙江省",
        "lat": 41.734606,
        "lng": 125.945913,
        "intro": null,
        "logo": "4a50691797574b8291033c94b9a31136.jpg",
        "province": "220000",
        "city": "220500",
        "district": null,
        "orgType": 2,
        "platformName": "测试平台"
    },
    {
        "orgId": "G11J2803",
        "name": "华南四区",
        "sort": 4,
        "status": 1,
        "parentId": "V25F7980",
        "remark": null,
        "createMan": "admin",
        "createTime": 1451459626000,
        "address": "沈阳市",
        "lat": 41.807521,
        "lng": 123.434625,
        "intro": "重庆思建科技有限公司",
        "logo": "3f53ab063fc14b2a967ee96c7b2369bf.png",
        "province": "210000",
        "city": "210100",
        "district": null,
        "orgType": 2,
        "platformName": "车联网乘用车管理平台"
    },
    {
        "orgId": "G22C0605",
        "name": "dadadsa2",
        "sort": 5,
        "status": 1,
        "parentId": "K28B0522",
        "remark": "",
        "createMan": "",
        "createTime": 1452150270000,
        "address": "1111111111",
        "lat": 29.567651,
        "lng": 106.553141,
        "intro": null,
        "logo": null,
        "province": "130000",
        "city": "130100",
        "district": null,
        "orgType": 2,
        "platformName": "adsa"
    },
    {
        "orgId": "G32C9248",
        "name": "机构aa",
        "sort": 1,
        "status": 1,
        "parentId": "S98L9288",
        "remark": null,
        "createMan": "42bac5261154491a8c1562ed36094b85",
        "createTime": 1437203949000,
        "address": "重庆市朝天门",
        "lat": 29.570809,
        "lng": 106.593529,
        "intro": "思建科技测试机构",
        "logo": "9ab34adb6b294984b39eb760a014513d.jpg",
        "province": "500000",
        "city": "500100",
        "district": null,
        "orgType": 2,
        "platformName": "车联网乘用车管理平台"
    },
    {
        "orgId": "H06L9278",
        "name": "华南七区",
        "sort": 7,
        "status": 1,
        "parentId": "V25F7980",
        "remark": null,
        "createMan": "admin",
        "createTime": 1451459694000,
        "address": "上海市",
        "lat": 31.23192,
        "lng": 121.473877,
        "intro": "重庆思建科技有限公司",
        "logo": "3f53ab063fc14b2a967ee96c7b2369bf.png",
        "province": "310000",
        "city": "310100",
        "district": null,
        "orgType": 2,
        "platformName": "车联网乘用车管理平台"
    },
    {
        "orgId": "H65C6451",
        "name": "华中区",
        "sort": 3,
        "status": 1,
        "parentId": "A00A0002",
        "remark": null,
        "createMan": "admin",
        "createTime": 1450666935000,
        "address": "重庆渝中区上清寺渝中大厦",
        "lat": 29.567625,
        "lng": 106.553142,
        "intro": "重庆思建科技有限公司",
        "logo": "3f53ab063fc14b2a967ee96c7b2369bf.png",
        "province": "500000",
        "city": "500100",
        "district": null,
        "orgType": 2,
        "platformName": "车联网乘用车管理平台"
    },
    {
        "orgId": "J45U7555",
        "name": "xx14",
        "sort": 3,
        "status": 1,
        "parentId": "P38Y4338",
        "remark": "xxxx",
        "createMan": "",
        "createTime": 1452177635000,
        "address": "xxxxxx",
        "lat": 40.748634,
        "lng": 107.395117,
        "intro": null,
        "logo": "69e8d7d5a404435d8ab000c6c860e2fb.jpg",
        "province": "150000",
        "city": "150800",
        "district": null,
        "orgType": 2,
        "platformName": "测试平台"
    },
    {
        "orgId": "J55L7328",
        "name": "xx13",
        "sort": 12,
        "status": 2,
        "parentId": "H65C6451",
        "remark": "xxx",
        "createMan": "",
        "createTime": 1452170390000,
        "address": "浙江省",
        "lat": 41.102282,
        "lng": 121.132391,
        "intro": null,
        "logo": "d7f2d608d94b4174b990eb1fd7a422cd.jpg",
        "province": "210000",
        "city": "210700",
        "district": null,
        "orgType": 2,
        "platformName": "测试平台"
    },
    {
        "orgId": "K28B0522",
        "name": "东北区",
        "sort": 7,
        "status": 1,
        "parentId": "A00A0002",
        "remark": null,
        "createMan": "admin",
        "createTime": 1450666973000,
        "address": "重庆渝中区上清寺渝中大厦",
        "lat": 29.567625,
        "lng": 106.553142,
        "intro": "重庆思建科技有限公司",
        "logo": "3f53ab063fc14b2a967ee96c7b2369bf.png",
        "province": "500000",
        "city": "500100",
        "district": null,
        "orgType": 2,
        "platformName": "车联网乘用车管理平台"
    },
    {
        "orgId": "L13A8426",
        "name": "华东区",
        "sort": 1,
        "status": 1,
        "parentId": "A00A0002",
        "remark": null,
        "createMan": "admin",
        "createTime": 1450666866000,
        "address": "重庆渝中区上清寺渝中大厦",
        "lat": 29.567625,
        "lng": 106.553142,
        "intro": "重庆思建科技有限公司",
        "logo": "3f53ab063fc14b2a967ee96c7b2369bf.png",
        "province": "500000",
        "city": "500100",
        "district": null,
        "orgType": 2,
        "platformName": "车联网乘用车管理平台"
    },
    {
        "orgId": "L35W2103",
        "name": "机构浙江",
        "sort": 6,
        "status": 1,
        "parentId": "S98L9288",
        "remark": null,
        "createMan": "dc866fd0f5a245258f0b9fda7b84f5fe",
        "createTime": 1444965119000,
        "address": "浙江省",
        "lat": 30.282492,
        "lng": 120.164064,
        "intro": "思建",
        "logo": "17fb9ce9c70147ba981544a7b9721f30.png",
        "province": "330000",
        "city": "330100",
        "district": null,
        "orgType": 2,
        "platformName": "思建广东运营平台"
    },
    {
        "orgId": "L53Z0758",
        "name": "dadadsa1",
        "sort": 4,
        "status": 1,
        "parentId": "K28B0522",
        "remark": "",
        "createMan": "",
        "createTime": 1452150257000,
        "address": "1111111111",
        "lat": 29.567651,
        "lng": 106.553141,
        "intro": null,
        "logo": null,
        "province": "130000",
        "city": "130100",
        "district": null,
        "orgType": 2,
        "platformName": "adsa"
    },
    {
        "orgId": "L57U8557",
        "name": "广安分公司",
        "sort": 14,
        "status": 1,
        "parentId": "R23H2376",
        "remark": null,
        "createMan": "aa372a67d81c482c931abc1935868b1f",
        "createTime": 1437205509000,
        "address": "重庆渝中区上清寺渝中大厦",
        "lat": 30.461708,
        "lng": 106.639485,
        "intro": "四川分公司是……………………",
        "logo": "9030ac9c206f4b1f8c79197e05a7630f.png",
        "province": "510000",
        "city": "511600",
        "district": null,
        "orgType": 2,
        "platformName": "广安车联网"
    },
    {
        "orgId": "M34T1470",
        "name": "城北分公司",
        "sort": 4,
        "status": 1,
        "parentId": "L57U8557",
        "remark": null,
        "createMan": "a4520648d225407c9c05b9ab713b7eb2",
        "createTime": 1444965822000,
        "address": "重庆渝中区上清寺渝中大厦",
        "lat": 30.461708,
        "lng": 106.639485,
        "intro": "四川分公司是……………………",
        "logo": "9030ac9c206f4b1f8c79197e05a7630f.png",
        "province": "510000",
        "city": "511600",
        "district": null,
        "orgType": 2,
        "platformName": "广安车联网"
    },
    {
        "orgId": "M48K3811",
        "name": "dadadsa",
        "sort": 6,
        "status": 1,
        "parentId": "K28B0522",
        "remark": "dadadsa",
        "createMan": "",
        "createTime": 1452150275000,
        "address": "1111111111",
        "lat": 29.567651,
        "lng": 106.553141,
        "intro": null,
        "logo": "0906b75eb63243fb8a992f84420d63da.jpg",
        "province": "130000",
        "city": "130100",
        "district": null,
        "orgType": 2,
        "platformName": "adsa"
    },
    {
        "orgId": "M63H0907",
        "name": "安图重庆分公司",
        "sort": 1,
        "status": 1,
        "parentId": "S02B1323",
        "remark": null,
        "createMan": "aa372a67d81c482c931abc1935868b1f",
        "createTime": 1438659515000,
        "address": "重庆渝中区上清寺渝中大厦",
        "lat": 29.567625,
        "lng": 106.553142,
        "intro": "四川分公司是……………………\r\n测试二\r\n测试三",
        "logo": "6bc489d33d104ef588782feeed823634.jpg",
        "province": "500000",
        "city": "500100",
        "district": null,
        "orgType": 2,
        "platformName": "车联网乘用车管理平台"
    },
    {
        "orgId": "M71Q1559",
        "name": "华南六区",
        "sort": 6,
        "status": 1,
        "parentId": "V25F7980",
        "remark": null,
        "createMan": "admin",
        "createTime": 1451459673000,
        "address": "哈尔滨市",
        "lat": 45.803961,
        "lng": 126.533685,
        "intro": "重庆思建科技有限公司",
        "logo": "3f53ab063fc14b2a967ee96c7b2369bf.png",
        "province": "230000",
        "city": "230100",
        "district": null,
        "orgType": 2,
        "platformName": "车联网乘用车管理平台"
    },
    {
        "orgId": "M98L0499",
        "name": "机构重庆",
        "sort": 2,
        "status": 1,
        "parentId": "S98L9288",
        "remark": null,
        "createMan": "42bac5261154491a8c1562ed36094b85",
        "createTime": 1439360674000,
        "address": "重庆市",
        "lat": 29.568317,
        "lng": 106.556663,
        "intro": "重庆渝中区上清寺渝中大厦",
        "logo": "17fb9ce9c70147ba981544a7b9721f30.png",
        "province": "500000",
        "city": "500100",
        "district": null,
        "orgType": 2,
        "platformName": "车联网乘用车管理平台"
    },
    {
        "orgId": "N29Q2489",
        "name": "客户1",
        "sort": 2,
        "status": 2,
        "parentId": "K28B0522",
        "remark": "tt000000",
        "createMan": "admin",
        "createTime": 1451813699000,
        "address": "山西省大同市1111",
        "lat": 39.090404,
        "lng": 117.206722,
        "intro": null,
        "logo": null,
        "province": "120000",
        "city": "120100",
        "district": null,
        "orgType": 2,
        "platformName": "测试平台"
    },
    {
        "orgId": "N35N1087",
        "name": "达州分公司",
        "sort": 11,
        "status": 1,
        "parentId": "R23H2376",
        "remark": null,
        "createMan": "aa372a67d81c482c931abc1935868b1f",
        "createTime": 1437205468000,
        "address": "重庆渝中区上清寺渝中大厦",
        "lat": 29.567625,
        "lng": 106.553142,
        "intro": "四川分公司是……………………",
        "logo": "9030ac9c206f4b1f8c79197e05a7630f.png",
        "province": "500000",
        "city": "500100",
        "district": null,
        "orgType": 2,
        "platformName": "车联网乘用车管理平台"
    },
    {
        "orgId": "N88L0234",
        "name": "华南八区",
        "sort": 8,
        "status": 1,
        "parentId": "V25F7980",
        "remark": null,
        "createMan": "admin",
        "createTime": 1451459712000,
        "address": "南京市",
        "lat": 32.060757,
        "lng": 118.810185,
        "intro": "重庆思建科技有限公司",
        "logo": "3f53ab063fc14b2a967ee96c7b2369bf.png",
        "province": "320000",
        "city": "320100",
        "district": null,
        "orgType": 2,
        "platformName": "车联网乘用车管理平台"
    },
    {
        "orgId": "P06E4630",
        "name": "xx8",
        "sort": 5,
        "status": 1,
        "parentId": "L13A8426",
        "remark": "ccc",
        "createMan": "d619725960934060a8f81b4c511a1ff2",
        "createTime": 1452067267000,
        "address": "山西省大同市",
        "lat": 29.567651,
        "lng": 106.553141,
        "intro": null,
        "logo": null,
        "province": "150000",
        "city": "150500",
        "district": null,
        "orgType": 2,
        "platformName": "测试平台"
    },
    {
        "orgId": "P38Y4338",
        "name": "华北区",
        "sort": 2,
        "status": 1,
        "parentId": "A00A0002",
        "remark": null,
        "createMan": "admin",
        "createTime": 1450666909000,
        "address": "重庆渝中区上清寺渝中大厦",
        "lat": 29.567625,
        "lng": 106.553142,
        "intro": "重庆思建科技有限公司",
        "logo": "3f53ab063fc14b2a967ee96c7b2369bf.png",
        "province": "500000",
        "city": "500100",
        "district": null,
        "orgType": 2,
        "platformName": "车联网乘用车管理平台"
    },
    {
        "orgId": "P48J9629",
        "name": "机构广东",
        "sort": 3,
        "status": 1,
        "parentId": "S98L9288",
        "remark": null,
        "createMan": "42bac5261154491a8c1562ed36094b85",
        "createTime": 1439050970000,
        "address": "广东省",
        "lat": 23.135707,
        "lng": 113.259366,
        "intro": "思建",
        "logo": "17fb9ce9c70147ba981544a7b9721f30.png",
        "province": "440000",
        "city": "440100",
        "district": null,
        "orgType": 2,
        "platformName": "思建广东运营平台"
    },
    {
        "orgId": "P90V8013",
        "name": "华中七区",
        "sort": 7,
        "status": 1,
        "parentId": "H65C6451",
        "remark": "",
        "createMan": "admin",
        "createTime": 1451456221000,
        "address": "重庆市",
        "lat": 29.619068,
        "lng": 106.538086,
        "intro": "重庆思建科技有限公司",
        "logo": null,
        "province": "500000",
        "city": "500100",
        "district": null,
        "orgType": 2,
        "platformName": "车联网乘用车管理平台"
    },
    {
        "orgId": "Q25L3473",
        "name": "重庆分公司",
        "sort": 2,
        "status": 1,
        "parentId": "A69L5908",
        "remark": "暂住证",
        "createMan": "admin",
        "createTime": 1450667313000,
        "address": "重庆渝中区上清寺渝中大厦",
        "lat": 29.567625,
        "lng": 106.553142,
        "intro": "重庆思建科技有限公司",
        "logo": null,
        "province": "500000",
        "city": "500100",
        "district": null,
        "orgType": 2,
        "platformName": "车联网乘用车管理平台"
    },
    {
        "orgId": "Q66P0244",
        "name": "丰禾分公司",
        "sort": 2,
        "status": 1,
        "parentId": "E81D3180",
        "remark": null,
        "createMan": "a4520648d225407c9c05b9ab713b7eb2",
        "createTime": 1444965917000,
        "address": "重庆渝中区上清寺渝中大厦",
        "lat": 29.567625,
        "lng": 106.553142,
        "intro": "四川分公司是……………………",
        "logo": "9030ac9c206f4b1f8c79197e05a7630f.png",
        "province": "500000",
        "city": "500100",
        "district": null,
        "orgType": 2,
        "platformName": "车联网乘用车管理平台"
    },
    {
        "orgId": "R23H2376",
        "name": "四川分公司",
        "sort": 1,
        "status": 1,
        "parentId": "L13A8426",
        "remark": "四川分公司大客户",
        "createMan": "admin",
        "createTime": 1437202796000,
        "address": "重庆渝中区上清寺渝中大厦11111",
        "lat": 29.601044,
        "lng": 106.528852,
        "intro": "四川分公司是……………………\r\n测试二\r\n测试三\r\n测试三",
        "logo": null,
        "province": "500000",
        "city": "500100",
        "district": null,
        "orgType": 2,
        "platformName": "车联网乘用车管理平台"
    },
    {
        "orgId": "R45S2131",
        "name": "福州公司",
        "sort": 6,
        "status": 2,
        "parentId": "W13B2292",
        "remark": "cccccccc1ccc",
        "createMan": "admin",
        "createTime": 1451935699000,
        "address": "福建省福州市",
        "lat": 26.08155,
        "lng": 119.307412,
        "intro": null,
        "logo": null,
        "province": "350000",
        "city": "350100",
        "district": null,
        "orgType": 2,
        "platformName": "车联网平台"
    },
    {
        "orgId": "R61N0068",
        "name": "机构福建",
        "sort": 5,
        "status": 1,
        "parentId": "S98L9288",
        "remark": null,
        "createMan": "42bac5261154491a8c1562ed36094b85",
        "createTime": 1439360544000,
        "address": "福建省",
        "lat": 24.483782,
        "lng": 118.094118,
        "intro": "重庆渝中区上清寺渝中大厦",
        "logo": "17fb9ce9c70147ba981544a7b9721f30.png",
        "province": "350000",
        "city": "350200",
        "district": null,
        "orgType": 2,
        "platformName": "车联网乘用车管理平台"
    },
    {
        "orgId": "R65W8703",
        "name": "机构云南",
        "sort": 4,
        "status": 1,
        "parentId": "S98L9288",
        "remark": null,
        "createMan": "42bac5261154491a8c1562ed36094b85",
        "createTime": 1440471605000,
        "address": "云南省",
        "lat": 24.887657,
        "lng": 102.837188,
        "intro": "重庆思建科技有限公司云南",
        "logo": "17fb9ce9c70147ba981544a7b9721f30.png",
        "province": "530000",
        "city": "530100",
        "district": null,
        "orgType": 2,
        "platformName": "车联网乘用车管理平台"
    },
    {
        "orgId": "R99X7257",
        "name": "华中二区",
        "sort": 2,
        "status": 1,
        "parentId": "H65C6451",
        "remark": null,
        "createMan": "admin",
        "createTime": 1451455695000,
        "address": "长沙市",
        "lat": 28.234035,
        "lng": 112.942135,
        "intro": "重庆思建科技有限公司",
        "logo": "3f53ab063fc14b2a967ee96c7b2369bf.png",
        "province": "430000",
        "city": "430100",
        "district": null,
        "orgType": 2,
        "platformName": "车联网乘用车管理平台"
    },
    {
        "orgId": "S02B1323",
        "name": "北京世纪安图数码科技发展有限责任公司",
        "sort": 17,
        "status": 1,
        "parentId": "R23H2376",
        "remark": null,
        "createMan": "aa372a67d81c482c931abc1935868b1f",
        "createTime": 1438313569000,
        "address": "重庆渝中区上清寺渝中大厦",
        "lat": 39.879128,
        "lng": 116.410895,
        "intro": "四川分公司是……………………\r\n测试二\r\n测试三",
        "logo": "17fb9ce9c70147ba981544a7b9721f30.png",
        "province": "110000",
        "city": "110100",
        "district": null,
        "orgType": 2,
        "platformName": "车联网乘用车管理平台"
    },
    {
        "orgId": "S11K8848",
        "name": "成都分公司",
        "sort": 8,
        "status": 1,
        "parentId": "R23H2376",
        "remark": null,
        "createMan": "aa372a67d81c482c931abc1935868b1f",
        "createTime": 1437205348000,
        "address": "重庆渝中区上清寺渝中大厦",
        "lat": 29.567625,
        "lng": 106.553142,
        "intro": "四川分公司是……………………才踩踩踩踩踩踩踩踩踩踩踩踩",
        "logo": "9030ac9c206f4b1f8c79197e05a7630f.png",
        "province": "500000",
        "city": "500100",
        "district": null,
        "orgType": 2,
        "platformName": "车联网乘用车管理平台"
    },
    {
        "orgId": "S15Y3796",
        "name": "华中五区",
        "sort": 5,
        "status": 1,
        "parentId": "H65C6451",
        "remark": null,
        "createMan": "admin",
        "createTime": 1451456155000,
        "address": "桂林市",
        "lat": 25.280089,
        "lng": 110.291232,
        "intro": "重庆思建科技有限公司",
        "logo": "3f53ab063fc14b2a967ee96c7b2369bf.png",
        "province": "450000",
        "city": "450300",
        "district": null,
        "orgType": 2,
        "platformName": "车联网乘用车管理平台"
    },
    {
        "orgId": "S30R7690",
        "name": "华中六区",
        "sort": 6,
        "status": 1,
        "parentId": "H65C6451",
        "remark": "华中六区测试",
        "createMan": "admin",
        "createTime": 1451456192000,
        "address": "三亚市",
        "lat": 18.253067,
        "lng": 109.521413,
        "intro": "重庆思建科技有限公司",
        "logo": null,
        "province": "460000",
        "city": "460200",
        "district": null,
        "orgType": 2,
        "platformName": "车联网乘用车管理平台"
    },
    {
        "orgId": "S37E1517",
        "name": "绵阳公司",
        "sort": 3,
        "status": 1,
        "parentId": "W13B2292",
        "remark": "新增客户1",
        "createMan": "admin",
        "createTime": 1451554959000,
        "address": "四川省绵阳市",
        "lat": 31.469453,
        "lng": 104.688589,
        "intro": null,
        "logo": null,
        "province": "510000",
        "city": "510700",
        "district": null,
        "orgType": 2,
        "platformName": "车联网平台"
    },
    {
        "orgId": "S62T1614",
        "name": "dadadsa111",
        "sort": 7,
        "status": 1,
        "parentId": "K28B0522",
        "remark": "xxxxxx",
        "createMan": "",
        "createTime": 1452150284000,
        "address": "1111111111",
        "lat": 29.567651,
        "lng": 106.553141,
        "intro": null,
        "logo": null,
        "province": "130000",
        "city": "130100",
        "district": null,
        "orgType": 2,
        "platformName": "adsa"
    },
    {
        "orgId": "S98L9288",
        "name": "机构a",
        "sort": 1,
        "status": 1,
        "parentId": "W13B2292",
        "remark": "1111",
        "createMan": "admin",
        "createTime": 1437203004000,
        "address": "重庆渝中区上清寺渝中大厦13楼",
        "lat": 29.566957,
        "lng": 106.554456,
        "intro": "重庆思建科技有限公司",
        "logo": "3f53ab063fc14b2a967ee96c7b2369bf.png",
        "province": "500000",
        "city": "500100",
        "district": null,
        "orgType": 2,
        "platformName": "车联网乘用车管理平台"
    },
    {
        "orgId": "T52U9398",
        "name": "华南九区",
        "sort": 9,
        "status": 1,
        "parentId": "V25F7980",
        "remark": null,
        "createMan": "admin",
        "createTime": 1451459925000,
        "address": "杭州市",
        "lat": 30.272823,
        "lng": 120.162304,
        "intro": "重庆思建科技有限公司",
        "logo": "3f53ab063fc14b2a967ee96c7b2369bf.png",
        "province": "330000",
        "city": "330100",
        "district": null,
        "orgType": 2,
        "platformName": "车联网乘用车管理平台"
    },
    {
        "orgId": "T56T7671",
        "name": "安图三亚分公司",
        "sort": 3,
        "status": 1,
        "parentId": "S02B1323",
        "remark": null,
        "createMan": "aa372a67d81c482c931abc1935868b1f",
        "createTime": 1438660163000,
        "address": "重庆渝中区上清寺渝中大厦",
        "lat": 29.567625,
        "lng": 106.553142,
        "intro": "四川分公司是……………………\r\n测试二\r\n测试三",
        "logo": "17fb9ce9c70147ba981544a7b9721f30.png",
        "province": "500000",
        "city": "500100",
        "district": null,
        "orgType": 2,
        "platformName": "车联网乘用车管理平台"
    },
    {
        "orgId": "T68N0022",
        "name": "xx5",
        "sort": 8,
        "status": 1,
        "parentId": "W13B2292",
        "remark": "xx",
        "createMan": "admin",
        "createTime": 1452024736000,
        "address": "浙江省",
        "lat": 41.300497,
        "lng": 123.774528,
        "intro": null,
        "logo": null,
        "province": "210000",
        "city": "210500",
        "district": null,
        "orgType": 2,
        "platformName": "测试平台"
    },
    {
        "orgId": "T74W9537",
        "name": "城北分公司1部",
        "sort": 1,
        "status": 1,
        "parentId": "M34T1470",
        "remark": null,
        "createMan": "a4520648d225407c9c05b9ab713b7eb2",
        "createTime": 1444965843000,
        "address": "重庆渝中区上清寺渝中大厦",
        "lat": 30.461708,
        "lng": 106.639485,
        "intro": "四川分公司是……………………",
        "logo": "9030ac9c206f4b1f8c79197e05a7630f.png",
        "province": "510000",
        "city": "511600",
        "district": null,
        "orgType": 2,
        "platformName": "广安车联网"
    },
    {
        "orgId": "U01V0761",
        "name": "xx12",
        "sort": 7,
        "status": 1,
        "parentId": "L13A8426",
        "remark": "xxx",
        "createMan": "",
        "createTime": 1452156349000,
        "address": "四川省邻水县丰禾镇",
        "lat": 33.395279,
        "lng": 120.165618,
        "intro": null,
        "logo": null,
        "province": "320000",
        "city": "320900",
        "district": null,
        "orgType": 2,
        "platformName": "测试平台"
    },
    {
        "orgId": "U21T7672",
        "name": "机构aaa",
        "sort": 5,
        "status": 1,
        "parentId": "G32C9248",
        "remark": null,
        "createMan": "42bac5261154491a8c1562ed36094b85",
        "createTime": 1437981257000,
        "address": "渝北区",
        "lat": 29.70686,
        "lng": 106.671358,
        "intro": "渝北区",
        "logo": "dd2c5955942140fd9df2d707cc6a001d.jpg",
        "province": "500000",
        "city": "500100",
        "district": null,
        "orgType": 2,
        "platformName": "车联网乘用车管理平台"
    },
    {
        "orgId": "U58X5571",
        "name": "xx4",
        "sort": 9,
        "status": 3,
        "parentId": "H65C6451",
        "remark": "x",
        "createMan": "admin",
        "createTime": 1451958095000,
        "address": "浙江省",
        "lat": 39.909796,
        "lng": 116.417884,
        "intro": null,
        "logo": null,
        "province": "110000",
        "city": "110100",
        "district": null,
        "orgType": 2,
        "platformName": "测试平台"
    },
    {
        "orgId": "U87F2401",
        "name": "xx7",
        "sort": 4,
        "status": 1,
        "parentId": "L13A8426",
        "remark": "xx",
        "createMan": "d619725960934060a8f81b4c511a1ff2",
        "createTime": 1452065820000,
        "address": "浙江省",
        "lat": 26.083984,
        "lng": 119.306226,
        "intro": null,
        "logo": null,
        "province": "350000",
        "city": "350700",
        "district": null,
        "orgType": 2,
        "platformName": "测试平台"
    },
    {
        "orgId": "V02S9850",
        "name": "宜昌公司",
        "sort": 4,
        "status": 2,
        "parentId": "W13B2292",
        "remark": "新增临时客户",
        "createMan": "admin",
        "createTime": 1451556006000,
        "address": "湖北省宜昌市",
        "lat": 40.672948,
        "lng": 122.24205,
        "intro": "",
        "logo": "febdd3b5bcf64bf2956ea11385690f89.jpg",
        "province": "210000",
        "city": "210800",
        "district": null,
        "orgType": 2,
        "platformName": "车联网平台"
    },
    {
        "orgId": "V25F7980",
        "name": "华南区",
        "sort": 4,
        "status": 1,
        "parentId": "A00A0002",
        "remark": null,
        "createMan": "admin",
        "createTime": 1450666921000,
        "address": "重庆渝中区上清寺渝中大厦",
        "lat": 29.567625,
        "lng": 106.553142,
        "intro": "重庆思建科技有限公司",
        "logo": "3f53ab063fc14b2a967ee96c7b2369bf.png",
        "province": "500000",
        "city": "500100",
        "district": null,
        "orgType": 2,
        "platformName": "车联网乘用车管理平台"
    },
    {
        "orgId": "V56G0314",
        "name": "华中八区",
        "sort": 8,
        "status": 1,
        "parentId": "H65C6451",
        "remark": null,
        "createMan": "admin",
        "createTime": 1451456242000,
        "address": "成都市",
        "lat": 30.571366,
        "lng": 104.065215,
        "intro": "重庆思建科技有限公司",
        "logo": "3f53ab063fc14b2a967ee96c7b2369bf.png",
        "province": "510000",
        "city": "510100",
        "district": null,
        "orgType": 2,
        "platformName": "车联网乘用车管理平台"
    },
    {
        "orgId": "W13B2292",
        "name": "西南区",
        "sort": 5,
        "status": 1,
        "parentId": "A00A0002",
        "remark": null,
        "createMan": "admin",
        "createTime": 1450666950000,
        "address": "重庆渝中区上清寺渝中大厦",
        "lat": 29.567625,
        "lng": 106.553142,
        "intro": "重庆思建科技有限公司",
        "logo": "3f53ab063fc14b2a967ee96c7b2369bf.png",
        "province": "500000",
        "city": "500100",
        "district": null,
        "orgType": 2,
        "platformName": "车联网乘用车管理平台"
    },
    {
        "orgId": "W86T7009",
        "name": "华南一区",
        "sort": 1,
        "status": 1,
        "parentId": "V25F7980",
        "remark": "",
        "createMan": "admin",
        "createTime": 1451459564000,
        "address": "唐山市",
        "lat": 39.636729,
        "lng": 118.179814,
        "intro": "重庆思建科技有限公司",
        "logo": null,
        "province": "130000",
        "city": "130200",
        "district": null,
        "orgType": 2,
        "platformName": "车联网乘用车管理平台"
    },
    {
        "orgId": "X03Y2577",
        "name": "dsa",
        "sort": 10,
        "status": 1,
        "parentId": "H65C6451",
        "remark": "",
        "createMan": "1",
        "createTime": 1452136927000,
        "address": "aaa",
        "lat": 29.567651,
        "lng": 106.553141,
        "intro": null,
        "logo": null,
        "province": "430000",
        "city": "430100",
        "district": null,
        "orgType": 2,
        "platformName": "sadsa"
    },
    {
        "orgId": "X30R1633",
        "name": "华南三区",
        "sort": 3,
        "status": 1,
        "parentId": "V25F7980",
        "remark": null,
        "createMan": "admin",
        "createTime": 1451459604000,
        "address": "包头市",
        "lat": 40.659641,
        "lng": 109.837808,
        "intro": "重庆思建科技有限公司",
        "logo": "3f53ab063fc14b2a967ee96c7b2369bf.png",
        "province": "150000",
        "city": "150200",
        "district": null,
        "orgType": 2,
        "platformName": "车联网乘用车管理平台"
    },
    {
        "orgId": "X39W4006",
        "name": "机构b",
        "sort": 2,
        "status": 1,
        "parentId": "W13B2292",
        "remark": "sdssssss",
        "createMan": "admin",
        "createTime": 1450665664000,
        "address": "重庆市",
        "lat": 29.567651,
        "lng": 106.553141,
        "intro": null,
        "logo": "2b161da1d04c40a588d2bc382363b4eb.jpg",
        "province": "500000",
        "city": "500100",
        "district": null,
        "orgType": 2,
        "platformName": "车联网乘用车管理平台"
    },
    {
        "orgId": "X39W4007",
        "name": "华中四区",
        "sort": 4,
        "status": 1,
        "parentId": "H65C6451",
        "remark": null,
        "createMan": "admin",
        "createTime": 1451455762000,
        "address": "深圳市",
        "lat": 22.548248,
        "lng": 114.061477,
        "intro": "重庆思建科技有限公司",
        "logo": "3f53ab063fc14b2a967ee96c7b2369bf.png",
        "province": "440000",
        "city": "440300",
        "district": null,
        "orgType": 2,
        "platformName": "车联网乘用车管理平台"
    },
    {
        "orgId": "Y05E7882",
        "name": "安图成都分公司",
        "sort": 2,
        "status": 1,
        "parentId": "S02B1323",
        "remark": null,
        "createMan": "aa372a67d81c482c931abc1935868b1f",
        "createTime": 1438660149000,
        "address": "重庆渝中区上清寺渝中大厦",
        "lat": 29.574862,
        "lng": 106.554991,
        "intro": "四川分公司是……………………\r\n测试二\r\n测试三",
        "logo": "17fb9ce9c70147ba981544a7b9721f30.png",
        "province": "130000",
        "city": "130300",
        "district": null,
        "orgType": 2,
        "platformName": "车联网乘用车管理平台"
    },
    {
        "orgId": "Y40G3771",
        "name": "接口测试",
        "sort": 18,
        "status": 1,
        "parentId": "R23H2376",
        "remark": null,
        "createMan": "aa372a67d81c482c931abc1935868b1f",
        "createTime": 1440568265000,
        "address": "重庆渝中区上清寺渝中大厦11111",
        "lat": 29.601044,
        "lng": 106.528852,
        "intro": "四川分公司是……………………\r\n测试二\r\n测试三\r\n测试三",
        "logo": "17fb9ce9c70147ba981544a7b9721f30.png",
        "province": "500000",
        "city": "500100",
        "district": null,
        "orgType": 2,
        "platformName": "车联网乘用车管理平台"
    },
    {
        "orgId": "Y86F7527",
        "name": "机构广西",
        "sort": 6,
        "status": 1,
        "parentId": "S98L9288",
        "remark": null,
        "createMan": "admin",
        "createTime": 1450681053000,
        "address": "广西",
        "lat": 22.825302,
        "lng": 108.379208,
        "intro": "重庆思建科技有限公司",
        "logo": "17fb9ce9c70147ba981544a7b9721f30.png",
        "province": "450000",
        "city": "450100",
        "district": null,
        "orgType": 2,
        "platformName": "车联网乘用车管理平台"
    },
    {
        "orgId": "Z35F4110",
        "name": "华南五区",
        "sort": 5,
        "status": 1,
        "parentId": "V25F7980",
        "remark": null,
        "createMan": "admin",
        "createTime": 1451459655000,
        "address": "长春市",
        "lat": 43.820063,
        "lng": 125.339117,
        "intro": "重庆思建科技有限公司",
        "logo": "3f53ab063fc14b2a967ee96c7b2369bf.png",
        "province": "220000",
        "city": "220100",
        "district": null,
        "orgType": 2,
        "platformName": "车联网乘用车管理平台"
    },
    {
        "orgId": "Z60F9181",
        "name": "xx3",
        "sort": 3,
        "status": 1,
        "parentId": "L13A8426",
        "remark": "vvvvvvvv",
        "createMan": "admin",
        "createTime": 1451948207000,
        "address": "上海",
        "lat": 35.420151,
        "lng": 116.59405,
        "intro": null,
        "logo": null,
        "province": "370000",
        "city": "370800",
        "district": null,
        "orgType": 2,
        "platformName": "测试平台"
    }
]}